Province,Type,Subregion,Name,latitude,longitude
Eastern Cape,Clinic,Resoviour Hills,Gustav Lamour Clinic,-33.815938,25.46398
Eastern Cape,Clinic,Cederville,Ntlola Clinic,-30.594405,29.084319
Eastern Cape,Clinic,Bambisana Hospital,Mzintlava Clinic,-31.40584,29.510428
Eastern Cape,Clinic,Mdantsane,Fezeka NU 3 Clinic,-32.931768,27.753004
Eastern Cape,Clinic,Grahamstown,Settlers Day Hospital,-33.307725,26.532283
Eastern Cape,Clinic,Adelaide,Bezuidenhoutville Clinic,-32.68805,26.29813
Eastern Cape,Clinic,Dordrecht,Dordrecht Clinic,-31.377304,27.047887
Eastern Cape,Clinic,Cerdock,Lingelihle Clinic,-32.180253,25.6291
Eastern Cape,Clinic,Alexandria,Alexandria Clinic,-33.651166,26.413786
Eastern Cape,Clinic,Matatiele,Matatiele Municipality Clinic,-30.333313,28.808658
Eastern Cape,Clinic,Vincent,Newhaven Hospital,-32.98286,27.90592
Eastern Cape,Clinic,Bathurst,Nolukhanyo Clinic,-33.493656,26.831371
Eastern Cape,Clinic,Molteno,Nomonde Clinic,-31.385671,26.359538
Eastern Cape,Clinic,Port Alfred,Nkwenkwezi Clinic,-33.577391,26.892501
Eastern Cape,Clinic,King Williams Town,Ginsberg Clinic,-32.892174,27.385266
Eastern Cape,Clinic,Missionvale,Missionvale Clinic,-33.87666,25.549961
Eastern Cape,Clinic,Kwanobuhle,Edamini Clinic,-33.832414,25.385955
Eastern Cape,Clinic,Kwanobuhle,Isolomzi Clinic,-33.825409,25.375398
Eastern Cape,Clinic,Hofmeyer,Hofmeyer Clinic,-31.655724,25.804267
Eastern Cape,Clinic,Fort Beaufort,CC Lloyd Clinic,-32.77502,26.63361
Eastern Cape,Clinic,Mndantsane,Nobuhle NU 8 Clinic,-32.940955,27.725112
Eastern Cape,Clinic,Mdantsane,Luyolo NU 9 Clinic,-32.926063,27.73391
Eastern Cape,Clinic,Michausdal,Michausdal Clinic,-32.173692,25.645032
Eastern Cape,Clinic,Indwe,Mcewula Clinic,-31.51225,27.528179
Eastern Cape,Clinic,Cathcart,Daliwe Clinic,-32.301795,27.151704
Eastern Cape,Clinic,Cookhouse,Bhongweni Clinic,-32.74653,25.798455
Eastern Cape,Clinic,Central,Central Clinic (Port Elizabeth),-33.964585,25.612789
Eastern Cape,Clinic,Molteno,Nceduluntu Clinic,-31.376821,26.354498
Eastern Cape,Clinic,Kwanobuhle,Mabandla Clinic,-33.806195,25.369781
Eastern Cape,Clinic,Indwe,Nompumelelo Clinic,-31.471441,27.347688
Eastern Cape,Clinic,Berlin,Berlin Clinic,-32.88395,27.57776
Eastern Cape,Clinic,Newtown,Newtown Clinic,-32.77402,26.61334
Eastern Cape,Clinic,Mdantsane,Nkqubela Hospital,-32.93284,27.74088
Eastern Cape,Clinic,Galvendale,Gelvandale Clinic,-33.9163,25.55013
Eastern Cape,Clinic,Galvendale,Helenvale Clinic,-33.911279,25.551799
Eastern Cape,Clinic,Korsten,Korsten CHC,-33.925352,25.56967
Eastern Cape,Clinic,Addo,Lukhanyiso Clinic,-33.522837,25.711041
Eastern Cape,Clinic,Uitkyk,Kareedouw Clinic,-33.951684,24.305658
Eastern Cape,Clinic,Somerset East,Aeroville Clinic,-32.750808,25.601076
Eastern Cape,Clinic,Alphendale,Alphendale Clinic,-33.013279,27.841346
Eastern Cape,Clinic,Tsomo,Khuze Clinic,-32.2134,27.628274
Eastern Cape,Clinic,Bizana,Amantshangase Clinic,-30.839589,29.587928
Eastern Cape,Clinic,Amalinda,John Dube Clinic,-32.991561,27.88565
Eastern Cape,Clinic,Orange Farm,Ngcengane Clinic,-31.537643,28.604193
Eastern Cape,Clinic,Buffalo Flats,Aspiranza Clinic,-33.019228,27.849545
Eastern Cape,Clinic,Kwadwesi,Kwadwesi Clinic,-33.848369,25.51866
Eastern Cape,Clinic,Mthatha,Baziya CHC,-31.614431,28.385099
Eastern Cape,Clinic,Cradock,High Street Clinic,-32.167248,25.616341
Eastern Cape,Clinic,Sterkspruit,Bensonvale Clinic,-30.582562,27.356668
Eastern Cape,Clinic,Aliwal North,Aliwal North Block H Clinic,-30.691622,26.680411
Eastern Cape,Clinic,Ellliotdale,Bomvana Clinic,-32.106372,28.812726
Eastern Cape,Clinic,Lusikisiki,Lusikisiki Village Clinic (Qaukeni),-31.365064,29.573178
Eastern Cape,Clinic,Libode,St Barnabas Hospital,-31.565208,29.117353
Eastern Cape,Clinic,Port St Johns,Kohlo Clinic,-31.549321,29.379748
Eastern Cape,Clinic,Mount Frere,Mdyobe Clinic,-31.132259,29.050711
Eastern Cape,Clinic,Elliotdale,Melitafa Clinic,-32.07117,28.680142
Eastern Cape,Clinic,Lusikisiki,Bomvini Clinic,-31.401671,29.472287
Eastern Cape,Clinic,Cathcart,Kati-Kati Clinic,-32.288389,27.155862
Eastern Cape,Clinic,Libode,Libode Clinic,-31.540018,29.024363
Eastern Cape,Clinic,Libode,Lutshaya Clinic,-31.322742,29.36108
Eastern Cape,Clinic,Lady Frere,Agnes Rest Clinic,-31.697272,27.031056
Eastern Cape,Clinic,Qumbu,Caba Clinic,-31.083777,28.613033
Eastern Cape,Clinic,Mthatha,Kambi Clinic,-31.492821,28.661469
Eastern Cape,Clinic,Sterkspruit,Musong Clinic,-30.490633,27.548054
Eastern Cape,Clinic,Tabankulu,Matubeni Clinic,-30.112592,29.315112
Eastern Cape,Clinic,Redoubt,Imizizi Clinic,-30.904938,29.969515
Eastern Cape,Clinic,Tabankulu,Ntshentshe Clinic,-30.707612,29.535137
Eastern Cape,Clinic,Uitenhage,Middle Street Clinic,-33.75772,25.390842
Eastern Cape,Clinic,Mdantsane,Nontyatyambo CHC,-32.940608,27.757677
Eastern Cape,Clinic,Mt. Frere,Lugangeni Clinic,-30.826852,28.935054
Eastern Cape,Clinic,Libode,Cwele Clinic,-31.672414,29.24055
Eastern Cape,Clinic,Shiluvana,Mncotsho Clinic,-32.934917,27.600172
Eastern Cape,Clinic,Mthatha,Ngangelizwe CHC,-31.601755,28.799664
Eastern Cape,Clinic,Kirkwood,Kirkwood Clinic,-33.402012,25.442649
Eastern Cape,Clinic,Kirkwood,Bergsig Clinic,-33.387515,25.450146
Eastern Cape,Clinic,Kirkwood,Moses Mabida Clinic,-33.397238,25.481546
Eastern Cape,Clinic,Sterkspruit,Hillside Clinic (Senqu),-30.561099,27.563748
Eastern Cape,Clinic,Mqanduli,Zitulele Hospital,-32.049093,29.059165
Eastern Cape,Clinic,Bizana,Baleni Clinic,-31.159225,29.971658
Eastern Cape,Clinic,Lady Frere,Bengu Clinic (Emalahleni),-31.792709,27.335165
Eastern Cape,Clinic,Tsolo,Mjika Clinic,-31.434572,28.646263
Eastern Cape,Clinic,Viedgesville,Mbekweni CHC,-31.719949,28.686582
Eastern Cape,Clinic,Iline Township,Ilinge Clinic,-31.977343,27.040419
Eastern Cape,Clinic,Viljoenskroon,Braelyn Extension Clinic,-33.003994,27.860727
Eastern Cape,Clinic,King Williams Town,Jafta Clinic,-32.798911,27.310558
Eastern Cape,Clinic,King Williams Town,Mdingi Clinic,-32.82356,27.330355
Eastern Cape,Clinic,Zwelitsha,Masakhane Clinic (Zwelitsha),-32.925458,27.43269
Eastern Cape,Clinic,Bhisho/Location,Bulembu Clinic,-32.872872,27.266548
Eastern Cape,Clinic,King Williams Town,Imidange Clinic,-32.779608,27.486798
Eastern Cape,Clinic,Newlands,Masiphile Clinic,-32.8544,27.788984
Eastern Cape,Clinic,King Williams Town,Mount Coke CHC,-32.980932,27.443461
Eastern Cape,Clinic,Peddie,Jaji Clinic,-33.345739,27.119217
Eastern Cape,Clinic,Dimbaza,Amahleke Clinic,-32.834766,27.230218
Eastern Cape,Clinic,Peddie,Mtyholo Clinic,-32.99244,27.35531
Eastern Cape,Clinic,East London,Duncan Village CHC,-33.00773,27.886691
Eastern Cape,Clinic,Peddie,Horton Clinic,-33.112276,27.021561
Eastern Cape,Clinic,King Williams Town,Ngqwele Clinic,-32.904812,27.217804
Eastern Cape,Clinic,Ngqeleni,Buntingville Clinic,-31.636098,28.870371
Eastern Cape,Clinic,Keiskammahoek,Burnshill Clinic,-32.768647,27.055024
Eastern Cape,Clinic,Butterworth,Butterworth Gateway Clinic,-32.33287,28.139457
Eastern Cape,Clinic,Lusiksiki,Ntafufu Clinic,-31.497477,29.527565
Eastern Cape,Clinic,Tabankulu,Ndawenzima Clinic,-30.90933,29.3621
Eastern Cape,Clinic,Cala,Cala Hospital,-31.523473,27.678997
Eastern Cape,Clinic,East London,Central Clinic (East London),-33.016927,27.906105
Eastern Cape,Clinic,Lujizweni Location,Lujizweni Clinic,-31.77005,28.991354
Eastern Cape,Clinic,Maqadini Location,Canzibe Gateway Clinic,-31.809503,29.065801
Eastern Cape,Clinic,Ngqeleni,Nqanda A Clinic,-31.77641,28.921562
Eastern Cape,Clinic,Uitenhage,Cuyler Youth Centre,-33.765979,25.392124
Eastern Cape,Clinic,Nompumelelo Location,Chris Hani Clinic,-32.954635,27.924749
Eastern Cape,Clinic,Clarkesbury,Clarkebury Clinic,-31.790883,28.286925
Eastern Cape,Clinic,Algoa Park,Algoa Park Clinic,-33.900956,25.56466
Eastern Cape,Clinic,Uitenhage,Nomangesi Jayiya Clinic,-33.820734,25.38441
Eastern Cape,Clinic,Middledrfit,Middledrift CHC,-32.81356,26.98832
Eastern Cape,Clinic,Humansdorp,Humansdorp Clinic,-34.035093,24.775393
Eastern Cape,Clinic,Bizana,Daliwonga Clinic,-31.103457,29.904348
Eastern Cape,Clinic,Despatch,Du Preez Street Clinic,-33.803141,25.463042
Eastern Cape,Clinic,Dutywa Nqabara,Idutywa Nqabara Clinic,-32.101122,28.454407
Eastern Cape,Clinic,Skool Street Clarkson,Clarkson Clinic,-34.010403,24.348788
Eastern Cape,Clinic,Bhisho,Bhisho Parliament Clinic,-32.863183,27.427524
Eastern Cape,Clinic,Mthatha,Efata Clinic,-31.568563,28.71823
Eastern Cape,Clinic,Whittlesea,Ekuphumleni Clinic,-32.178409,26.782093
Eastern Cape,Clinic,Keiskammahoek,Masincedane Clinic,-32.686116,27.11374
Eastern Cape,Clinic,Fish River Shop,Fish River Clinic,-31.911817,25.415886
Eastern Cape,Clinic,Flagstaff,Flagstaff Clinic,-31.080063,29.496124
Eastern Cape,Clinic,Mt Fletcher,Bethania Clinic,-30.659827,28.295921
Eastern Cape,Clinic,Alice,Gilton Clinic,-32.66184,26.94244
Eastern Cape,Clinic,Lady Frere,Glen Grey Hospital,-31.719037,27.199579
Eastern Cape,Clinic,Lusikisiki,Goso Forest Clinic,-31.38858,29.622249
Eastern Cape,Clinic,Zinyoka,Govan Mbeki Clinic,-33.857166,25.535381
Eastern Cape,Clinic,Nqamakwe,Grainvalley Clinic,-32.237561,28.048927
Eastern Cape,Clinic,Idutywa,Gwadana Clinic,-32.214998,28.290675
Eastern Cape,Clinic,Willowvale,Gwadu Clinic,-32.220094,28.66811
Eastern Cape,Clinic,Louterwater,Louterwater Clinic,-33.792884,23.631313
Eastern Cape,Clinic,Hlabatshane Clinic,Hlabatshane Clinic,-31.745112,28.856835
Eastern Cape,Clinic,Mt Fletcher,Hlangalane Clinic,-30.963845,28.529668
Eastern Cape,Clinic,Misgund,Misgund Clinic,-33.762563,23.502387
Eastern Cape,Clinic,Cofimvaba,Lower Seplan Clinic,-31.712696,27.443542
Eastern Cape,Clinic,Port St Johns,Isilimela Gateway Clinic,-31.733779,29.359197
Eastern Cape,Clinic,Jamestown,Jamestown Clinic,-31.130482,26.804023
Eastern Cape,Clinic,Alice,Gxwederha Clinic,-32.84161,26.78648
Eastern Cape,Clinic,Despatch,Joe Slovo Clinic,-33.825072,25.50272
Eastern Cape,Clinic,Kareel,Krakeel Clinic,-33.814302,23.7275
Eastern Cape,Clinic,Queenstown,Komani Hospital,-31.918073,26.90732
Eastern Cape,Clinic,Mgudu,Mgudu Clinic,-31.478168,28.34699
Eastern Cape,Clinic,Humansdorp,Kruisfontein Clinic,-34.021866,24.746691
Eastern Cape,Clinic,Mthatha,Civic Centre Clinic (Mthatha),-31.58265,28.78992
Eastern Cape,Clinic,Elliotdale,Jalamba Clinic,-31.961948,28.68011
Eastern Cape,Clinic,Tsomo,Ku Bengu Clinic,-32.14341,27.61732
Eastern Cape,Clinic,Stutterheim,Kubusi Clinic,-32.59433,27.41285
Eastern Cape,Clinic,Willowvale,Kwa-Mkholoza Clinic,-32.320357,28.594657
Eastern Cape,Clinic,X9044,Newlands Clinic,-32.878094,27.749394
Eastern Cape,Clinic,Port Elizabeth,Kwazakhele Clinic,-33.883269,25.591568
Eastern Cape,Clinic,Kwazakhele,Kwazakhele CHC,-33.87768,25.585444
Eastern Cape,Clinic,Lady Frere,Ndonga Clinic,-31.625191,27.388479
Eastern Cape,Clinic,Lady Frere,Maqashu Clinic,-31.743298,27.334743
Eastern Cape,Clinic,Lady Frere,Mkapusi Clinic,-31.595162,27.106699
Eastern Cape,Clinic,Amalinda,Frere Gateway Clinic,-32.996458,27.891186
Eastern Cape,Clinic,Keiskammahoek,Lenye Clinic,-32.749682,27.086272
Eastern Cape,Clinic,Whittlesea,Didimana Clinic,-32.121421,26.611464
Eastern Cape,Clinic,Ngcobo,Gqaga Clinic,-31.544896,28.213019
Eastern Cape,Clinic,Keiskammahoek,Lower Zingcuka Clinic,-32.718808,27.099369
Eastern Cape,Clinic,Southyville,Lubisi Clinic,-31.799026,27.459879
Eastern Cape,Clinic,Whittlesea,Engojini Clinic,-32.22432,26.753857
Eastern Cape,Clinic,Tsomo,Luthuli Clinic,-31.120592,27.738735
Eastern Cape,Clinic,Mqandulu,Lutubeni Clinic,-31.927063,28.881764
Eastern Cape,Clinic,Libode,Lwandile Clinic,-31.867282,29.213862
Eastern Cape,Clinic,Sterkspruit,Macacuma Satellite Clinic,-30.457349,27.352186
Eastern Cape,Clinic,Centane,Macibe Clinic,-32.509413,28.320286
Eastern Cape,Clinic,Qumbu,Mahlungulu Clinic (Mhlontlo),-31.077384,28.81672
Eastern Cape,Clinic,Libode,Nkanga Clinic,-31.46512,29.173588
Eastern Cape,Clinic,Lesseyton Clinic Queenstown,Lesseyton Clinic,-31.842416,26.777496
Eastern Cape,Clinic,Port St Johns,Majola Clinic,-31.516293,29.318765
Eastern Cape,Clinic,Bizana,Makwantini Clinic,-31.105733,29.990211
Eastern Cape,Clinic,Aliwal North,Maletswai Clinic,-30.692789,26.692395
Eastern Cape,Clinic,Libode,Mangcwanguleni Clinic,-31.329304,29.172623
Eastern Cape,Clinic,Mount Fletcher,Mangoloaneng Clinic,-30.518884,28.460799
Eastern Cape,Clinic,Port St Johns,Mantusini Clinic,-31.575012,29.294014
Eastern Cape,Clinic,Sterkspruit,Hlomendlini Clinic,-30.5861,27.263198
Eastern Cape,Clinic,Mapuzi A/A,Mapuzi Clinic,-31.959265,29.130018
Eastern Cape,Clinic,Ngqeleni,Maqanyeni Clinic,-31.642225,28.973141
Eastern Cape,Clinic,Mt Frere,Mount Frere PHC Clinic,-30.900045,28.995707
Eastern Cape,Clinic,Mt Frere,Kwanonzame New Clinic,-31.517377,24.008493
Eastern Cape,Clinic,New Brighton,New Brighton CHC,-33.909006,25.58468
Eastern Cape,Clinic,Lady Frere,Matyantya Clinic,-31.785279,27.072034
Eastern Cape,Clinic,Qumbu,Mbalisweni Clinic,-31.267639,29.115813
Eastern Cape,Clinic,Mbashe,Nqabeni Clinic,-32.118704,28.58487
Eastern Cape,Clinic,Idutywa,Mpozolo Clinic,-32.181989,28.779075
Eastern Cape,Clinic,Idutywa,Jingqi Clinic,-32.332831,28.657679
Eastern Cape,Clinic,Idutywa,Mahasana Clinic,-32.33607,28.727489
Eastern Cape,Clinic,Ngqeleni,Ndanya Clinic,-31.572718,28.961581
Eastern Cape,Clinic,Qumbu,Mdeni Clinic,-31.034761,28.779043
Eastern Cape,Clinic,Alice,Melani Clinic,-32.72545,26.87394
Eastern Cape,Clinic,Middledrift,Lower Regu Clinic,-32.81815,26.95249
Eastern Cape,Clinic,Midford Clinic Ntabetemba,Mitford Clinic,-31.990625,26.532328
Eastern Cape,Clinic,Ntabankulu,Mangqamzeni Clinic,-30.995591,29.069079
Eastern Cape,Clinic,Bizana,Mngungu Clinic,-31.056413,30.032035
Eastern Cape,Clinic,Graaff Reinet,Kroonvale Clinic,-32.255736,24.561326
Eastern Cape,Clinic,Mthatha,Mpeko Clinic,-31.623736,28.633102
Eastern Cape,Clinic,Mpindweni,Mpindweni Clinic,-31.51167,28.781015
Eastern Cape,Clinic,Mt. Frere,Mpoza Clinic (Mount Frere),-30.731786,29.069586
Eastern Cape,Clinic,Elliotdale,Mqhele Clinic,-31.994178,28.89164
Eastern Cape,Clinic,Maclear,Mqokolweni Clinic,-31.121665,28.549725
Eastern Cape,Clinic,Willowvale,Msendo Clinic,-32.27135,28.790078
Eastern Cape,Clinic,Alice,Msobomvu Clinic,-32.70058,26.85278
Eastern Cape,Clinic,Mt Frere,Mkemane Clinic,-30.672483,29.030259
Eastern Cape,Clinic,Mganduli,Ntlangaza Clinic,-31.827173,28.871813
Eastern Cape,Clinic,Matatiele,Mzongwana Clinic,-30.166121,29.057813
Eastern Cape,Clinic,Ugie,Ncembu Clinic,-31.3941,28.404854
Eastern Cape,Clinic,Butterworth,Ndabakazi Clinic,-32.355667,28.035827
Eastern Cape,Clinic,East London,Gompo A Ndende Clinic,-33.007219,27.876342
Eastern Cape,Clinic,East London,Needs Camp Clinic,-33.005697,27.647478
Eastern Cape,Clinic,Qumbu,Nessie Knight Clinic,-31.010907,28.682261
Eastern Cape,Clinic,Debe Nek,Ntaba ka Ndoda Clinic,-32.818218,27.106801
Eastern Cape,Clinic,Ngcobo,Ngcobo CHC,-31.680584,28.011146
Eastern Cape,Clinic,Ngcwanguba,Ngcwanguba CHC,-31.919521,29.032402
Eastern Cape,Clinic,Adelaide,Nomakhwezi Makhenyane Clinic,-32.69297,26.31339
Eastern Cape,Clinic,Butterworth,Highview Clinic,-32.434991,27.947188
Eastern Cape,Clinic,Mqanduli,Ngwenya Clinic,-31.949028,28.76685
Eastern Cape,Clinic,Tsolo,Ngxaza Clinic,-31.214288,28.506984
Eastern Cape,Clinic,Greenbushes,Masakhane Clinic (N Mandela Metro),-33.92395,25.44428
Eastern Cape,Clinic,Elliotdale,Nkanya Clinic,-32.158091,28.957965
Eastern Cape,Clinic,Centerton Hunckey,Masakhane Clinic (Hankey),-33.82773,24.872886
Eastern Cape,Clinic,Gura Clinic,Gura Clinic,-31.027071,28.833393
Eastern Cape,Clinic,Mgwali Stutterheim,Mgwali Clinic,-32.461027,27.606076
Eastern Cape,Clinic,Cathcart,Cathcart Clinic,-32.29816,27.14426
Eastern Cape,Clinic,Queestown,Bacclesfarm Clinic,-32.040569,26.461371
Eastern Cape,Clinic,Grahamstown,Anglo African Street Clinic,-33.311444,26.525867
Eastern Cape,Clinic,Mthatha,Mthatha Gateway Clinic,-31.586633,28.764181
Eastern Cape,Clinic,Libode,Nolita Clinic,-31.700004,28.946166
Eastern Cape,Clinic,Hamburg,Hamburg Clinic,-33.290568,27.473226
Eastern Cape,Clinic,East London,Empilweni CHC,-33.014525,27.849384
Eastern Cape,Clinic,Zone 1,Nomzamo CHC,-31.917153,26.950525
Eastern Cape,Clinic,Nciqeleni,Ntapane Clinic,-31.593458,28.847086
Eastern Cape,Clinic,Ngqeleni,Ntibane Clinic,-31.79009,29.159185
Eastern Cape,Clinic,Flagstaff,Ntlenzi Clinic,-30.950476,29.612867
Eastern Cape,Clinic,Mthatha,Ntshele Clinic,-31.67264,28.722022
Eastern Cape,Clinic,Alice,Assina Mandla Clinic,-32.75045,26.7941
Eastern Cape,Clinic,Boyesen Park,Booysens Park Clinic,-33.862104,25.459131
Eastern Cape,Clinic,King Williams Town,Grey Gateway Clinic,-32.879623,27.394377
Eastern Cape,Clinic,Old Location,Empilisweni Clinic,-31.193879,28.240383
Eastern Cape,Clinic,Middleburg Ec,Kwanonzame Old Clinic,-31.508756,25.003909
Eastern Cape,Clinic,Cofimvaba,Ncora Clinic,-31.818157,27.741243
Eastern Cape,Clinic,Aliwal North,Aliwal North Hospital,-30.697167,26.70719
Eastern Cape,Clinic,Mount Croix,Central CHC (Sandford),-33.958027,25.601723
Eastern Cape,Clinic,Libode,Caguba Clinic,-31.638268,29.469001
Eastern Cape,Clinic,Mxhalanga,Mxalanga Clinic,-32.73985,27.36593
Eastern Cape,Clinic,Molteno,Molteno Clinic,-26.21361,31.23523
Eastern Cape,Clinic,Queenstown,Hewu Hospital,-32.168393,26.792752
Eastern Cape,Clinic,Midi Llovo,Masakhe Clinic,-33.923854,25.444234
Eastern Cape,Clinic,Sterkstroom,Sterkstroom Hospital,-31.55323,26.554269
Eastern Cape,Clinic,Middledrift,Njwaxa Clinic,-32.8728,26.9056
Eastern Cape,Clinic,Ezibeleni,Ezibeleni Clinic,-31.90093,26.959004
Eastern Cape,Clinic,Lady Frere,Machubeni Clinic,-31.55987,27.18929
Eastern Cape,Clinic,Fort Beaufort,Fort Beaufort Gateway Clinic,-32.7816,26.6348
Eastern Cape,Clinic,Bedford,Mzamomhle Clinic (Bedford),-32.69044,26.09306
Eastern Cape,Clinic,Manzolwandle,Kamastone Clinic,-32.067226,26.650088
Eastern Cape,Clinic,Fort Beaufort,Hillside Clinic (Nkonkobe),-32.75227,26.63978
Eastern Cape,Clinic,Lady Frere,Ngonyama CHC,-31.668153,26.935397
Eastern Cape,Clinic,Tarkastad,Martje Venter (Tarkastad) Hospital,-32.009252,26.258435
Eastern Cape,Clinic,Qamata,Lanti Clinic,-31.880582,27.401595
Eastern Cape,Clinic,Queenstown,KB Siswana Clinic,-32.059339,26.765965
Eastern Cape,Clinic,Queenstown,Gwatyu Clinic,-32.006477,27.321933
Eastern Cape,Clinic,Whittlesea,Haytor Clinic,-32.294688,26.771021
Eastern Cape,Clinic,Fort Beaufort,Mxhelo Clinic,-32.79465,26.73477
Eastern Cape,Clinic,Willasvale,Nqabara Clinic,-32.247098,28.720745
Eastern Cape,Clinic,Trichardtsdal,Mhlanga Clinic,-31.464525,27.15988
Eastern Cape,Clinic,Whittlesea,Hackney Clinic,-32.318133,26.644903
Eastern Cape,Clinic,Emalahleni,Mount Arthur Clinic,-31.697279,27.031042
Eastern Cape,Clinic,Butterworth,Dr CL Bikitsha Clinic,-32.278377,28.105042
Eastern Cape,Clinic,Bedford,Bedford Hospital,-32.67534,26.09012
Eastern Cape,Clinic,Adelaide,Adelaide Hospital,-32.70092,26.29427
Eastern Cape,Clinic,Adelaide,Adelaide Gateway Clinic,-32.69994,26.29404
Eastern Cape,Clinic,Keiskammahoek,Cata Clinic,-32.595165,27.124842
Eastern Cape,Clinic,King Williams Town,Ethembeni Clinic,-32.7628,27.43183
Eastern Cape,Clinic,Bedford,Bedford Clinic,-32.68292,26.0883
Eastern Cape,Clinic,Uitenhage,Kruisrivier Clinic,-33.765623,25.349225
Eastern Cape,Clinic,Komga,Komga Hospital,-32.57606,27.89576
Eastern Cape,Clinic,Komga,Komga Rural Clinic,-32.582127,27.962895
Eastern Cape,Clinic,Mpolweni,Lulama Kama Clinic,-32.7686,26.65496
Eastern Cape,Clinic,Mgquamakwe,Ntseshe Clinic,-32.09424,28.09913
Eastern Cape,Clinic,Stutterheim,Stutterheim Hospital,-32.56883,27.42256
Eastern Cape,Clinic,Matatiyele,Elukholweni Clinic,-30.629156,28.852099
Eastern Cape,Clinic,Stutterheim,Amabele Clinic,-32.66337,27.52389
Eastern Cape,Clinic,Greenfields,Fort Grey TB Hospital,-33.02207,27.82122
Eastern Cape,Clinic,Algoa Park,Empilweni TB Hospital,-33.908859,25.58468
Eastern Cape,Clinic,Libode,Makhotyana CHC,-31.43541,29.022912
Eastern Cape,Clinic,Fort Beaufort,Winterberg TB Hospital,-32.77916,26.65807
Eastern Cape,Clinic,Dordrecht,Dordrecht Hospital,-31.391496,27.045958
Eastern Cape,Clinic,Butterworth,Nqancule Clinic,-32.35216,27.79323
Eastern Cape,Clinic,Ngqeleni,Nkumandeni Clinic,-31.73017,29.04818
Eastern Cape,Clinic,Mthatha,Ntshabeni Clinic,-31.538955,28.692287
Eastern Cape,Clinic,Elliot,Elliot Hospital,-31.337492,27.839329
Eastern Cape,Clinic,Middleburg Cape,Middelburg Clinic,-31.49488,25.00754
Eastern Cape,Clinic,Cradock,Cradock Hospital,-32.167989,25.622912
Eastern Cape,Clinic,Kookrus,Eluxolweni Clinic,-31.643611,25.805589
Eastern Cape,Clinic,Lusikisiki,Bodweni Clinic,-31.184761,29.551313
Eastern Cape,Clinic,Queenstown,Gardens Clinic,-31.893643,26.874388
Eastern Cape,Clinic,Ngcobo,All Saints Gateway Clinic,-28.04807,28.046663
Eastern Cape,Clinic,Qumbu,Nessie Knight Hospital,-31.010907,28.682261
Eastern Cape,Clinic,Mthatha,Mqhekezweni Clinic,-31.73366,28.46755
Eastern Cape,Clinic,Bizana,Mpetsheni Clinic,-30.990764,29.792508
Eastern Cape,Clinic,Bhisho,Ndevana Clinic,-32.909852,27.50726
Eastern Cape,Clinic,Port Alfred,Port Alfred Hospital,-33.595282,26.884317
Eastern Cape,Clinic,Kwanobuhle,Laetitia Bam CHC,-33.916423,25.550061
Eastern Cape,Clinic,Mt. Ayliff,Mount Ayliff PHC Clinic,-30.797433,29.370913
Eastern Cape,Clinic,Mtakatye,Mtakatye Clinic,-31.846699,29.244806
Eastern Cape,Clinic,Bizana,Ndela Clinic,-30.947755,29.713195
Eastern Cape,Clinic,Flagstaff,Nkozo Clinic,-31.201744,29.429369
Eastern Cape,Clinic,Mt. Frere,Mntwana Clinic,-30.976448,28.924639
Eastern Cape,Clinic,Ngwemnyama,Ngwemnyama Clinic,-31.25479,29.016491
Eastern Cape,Clinic,Indwe,Guba Clinic,-31.51514,27.30681
Eastern Cape,Clinic,Port Saint Johns,Isilimela Hospital,-31.733779,29.359197
Eastern Cape,Clinic,Namakgale,Manzimahle Clinic,-31.624819,27.556549
Eastern Cape,Clinic,Cofimvaba,Cofimvaba Hospital,-32.011347,27.581767
Eastern Cape,Clinic,Peddie,Bhele Clinic,-33.20301,27.182662
Eastern Cape,Clinic,Mt. Ayliff,Mount Ayliff Hospital,-30.797433,29.370913
Eastern Cape,Clinic,Bhisho,Bhisho Gateway Clinic,-32.82697,27.456626
Eastern Cape,Clinic,Jamestown,Jamestown Hospital,-31.123632,26.807276
Eastern Cape,Clinic,Steynsburg,Steynsburg Hospital,-31.294032,25.814894
Eastern Cape,Clinic,Holy Cross,Holy Cross PHC Clinic,-31.148278,29.676084
Eastern Cape,Clinic,Flagstaff,Holy Cross Hospital,-31.148278,29.676084
Eastern Cape,Clinic,Grahamstown,Fort England Hospital,-33.315436,26.543186
Eastern Cape,Clinic,Lusisikisiki,Magwa Clinic,-31.4184,29.671594
Eastern Cape,Clinic,Tsolo,Dr Malizo Mpehle Memorial Hospital,-31.316606,28.777753
Eastern Cape,Clinic,Lusikisiki,Malangeni Clinic,-31.311207,29.700685
Eastern Cape,Clinic,Grahamstown,Settlers Hospital,-33.302811,26.51781
Eastern Cape,Clinic,Aliwal North,Hilton Clinic,-30.698823,26.69755
Eastern Cape,Clinic,Lusikisiki,Mtambalala Clinic,-31.542039,29.587904
Eastern Cape,Clinic,Lusikisiki,Bambisana Hospital,-31.451172,29.454045
Eastern Cape,Clinic,Lusikisiki,Mfundambini Clinic,-30.898802,29.519513
Eastern Cape,Clinic,Tsolo,Mbokotwana Clinic,-31.259789,28.805868
Eastern Cape,Clinic,Mt Fletcher,Taylor Bequest Hospital (Elundini),-30.689528,28.510369
Eastern Cape,Clinic,Idutywa,Bolotwa Clinic (Idutywa),-31.91607,28.292898
Eastern Cape,Clinic,Peddie,Glenmore Clinic,-33.142572,26.858592
Eastern Cape,Clinic,Peddie,Jama Clinic,-33.377311,27.093522
Eastern Cape,Clinic,Peddie,Nier Clinic,-33.357943,27.243964
Eastern Cape,Clinic,Peddie,Norah Clinic,-33.227757,27.308463
Eastern Cape,Clinic,Ngcobo,Mhlopekazi Clinic,-31.740331,28.289607
Eastern Cape,Clinic,Motherwell,Motherwell CHC,-33.811459,25.597329
Eastern Cape,Clinic,Butterworth,Tafalofefe Hospital,-32.429283,28.473167
Eastern Cape,Clinic,Sterkspruit,Esilindini Clinic,-30.543866,27.330267
Eastern Cape,Clinic,Sterkspruit,Herschel Clinic,-30.61497,27.16345
Eastern Cape,Clinic,Sterkspruit,Ndofela Clinic,-30.384042,27.431772
Eastern Cape,Clinic,Libode,Mevana Clinic,-31.528123,29.296173
Eastern Cape,Clinic,Libode,Nkanunu Clinic,-31.760938,29.218386
Eastern Cape,Clinic,Libode,Double Falls Clinic,-31.627443,29.383525
Eastern Cape,Clinic,Maclear,Lower Tsitsana Clinic,-31.522995,28.207996
Eastern Cape,Clinic,Bizana,St Patrick's Hospital,-30.863285,29.854665
Eastern Cape,Clinic,Bizana,Amandengane Clinic,-31.099178,29.750606
Eastern Cape,Clinic,Bizana,Kanyayo (Bizana) Clinic,-31.079268,29.800673
Eastern Cape,Clinic,Humansdorp,Humansdorp Hospital,-34.029998,24.780098
Eastern Cape,Clinic,Flagstaff,Malongwana Clinic,-31.013647,29.606057
Eastern Cape,Clinic,Bizana,Greenville Hospital,-30.930565,30.108987
Eastern Cape,Clinic,Bizana,Greenville PHC Clinic,-30.929712,30.110006
Eastern Cape,Clinic,Kleinhoek Clinic,Kleinbulhoek Clinic,-32.100067,26.560577
Eastern Cape,Clinic,Libode,Mgwenyane Clinic,-31.555307,29.233211
Eastern Cape,Clinic,Whittlesea,Cimezile Clinic,-32.262829,26.636344
Eastern Cape,Clinic,Khayamnandi,Khayamnandi Clinic,-31.281664,25.811927
Eastern Cape,Clinic,Paterson,Kwazenzele Clinic,-33.522907,25.710757
Eastern Cape,Clinic,Pearston,Gracey Clinic,-32.582041,25.133514
Eastern Cape,Clinic,Kidds Beach,Ncera Clinic,-33.115196,27.592246
Eastern Cape,Clinic,Centane,Ncizele Clinic,-32.598832,28.433481
Eastern Cape,Clinic,Wllowvale,Nqadu 2 Satellite Clinic,-32.21347,28.3782
Eastern Cape,Clinic,Lusikisiki,Ngcoya Clinic,-31.388419,29.336355
Eastern Cape,Clinic,Mthatha,Nqwathi Clinic,-31.709828,28.3584
Eastern Cape,Clinic,Port Elizabeth,Jose Pearson TB Hospital,-33.891712,25.468588
Eastern Cape,Clinic,Lusikisiki,Mpoza Clinic (Lusikisiki),-31.236078,29.55686
Eastern Cape,Clinic,Alexandria,Kwa-Nonqubela Clinic,-33.656687,26.420368
Eastern Cape,Clinic,Cala,Beestekraal Clinic,-31.517471,27.815988
Eastern Cape,Clinic,Cala,Askeaton Clinic,-31.625093,27.460434
Eastern Cape,Clinic,Humansdorp,Loerie Clinic,-33.87597,25.019163
Eastern Cape,Clinic,Humansdorp,Andrieskraal Satellite Clinic,-33.746529,24.640381
Eastern Cape,Clinic,Steytlerville,Baviaans Clinic,-33.33402,24.343214
Eastern Cape,Clinic,Viedgesville,Maxwele Clinic,-31.704023,28.735492
Eastern Cape,Clinic,Kei Mouth,Cwili Clinic,-32.676982,28.363489
Eastern Cape,Clinic,Idutywa,Lota Clinic,-31.863207,28.335996
Eastern Cape,Clinic,Peddie,Matomela Clinic,-33.275743,27.113743
Eastern Cape,Clinic,Ngcobo,Gubenxa Clinic,-31.717355,27.820856
Eastern Cape,Clinic,Bizana,Isikelo Clinic,-30.786719,29.767942
Eastern Cape,Clinic,Burgersdorp,Burgersdorp Clinic,-30.99439,26.331863
Eastern Cape,Clinic,Burgersdorp,Eureka Clinic,-31.007249,26.317977
Eastern Cape,Clinic,Graaf Reinet,Margery Parkes TB Hospital,-32.267834,24.556476
Eastern Cape,Clinic,Burgersdorp,Mzamomhle Clinic (Albert),-31.011357,26.333976
Eastern Cape,Clinic,Maclear,Maclear Clinic,-31.06886,28.35162
Eastern Cape,Clinic,Molteno,Molteno Hospital,-31.392238,26.355799
Eastern Cape,Clinic,Joubertina,Joubertina CHC,-33.82642,23.865129
Eastern Cape,Clinic,East London,Breidbach Clinic,-32.88561,27.446562
Eastern Cape,Clinic,Kenton On Sea,Kenton-On-Sea Clinic,-33.676401,26.66601
Eastern Cape,Clinic,Ngcobo,Bokleni Clinic,-31.595891,28.194118
Eastern Cape,Clinic,Matatiele,Magadla Clinic,-30.338227,28.681784
Eastern Cape,Clinic,Jansenville,Hospital,-32.941457,24.663282
Eastern Cape,Clinic,King Williams Town,Mtombe Clinic,-33.054755,27.334735
Eastern Cape,Clinic,Jansenville,Brug Straat Clinic (Jansenville),-32.947678,24.666844
Eastern Cape,Clinic,Mt.Fletcher,Isilindini Clinic,-30.61905,28.57801
Eastern Cape,Clinic,Aberdeen,Aberdeen Hospital,-32.473958,24.054372
Eastern Cape,Clinic,Grahamstown,Joza Clinic,-33.291604,26.560315
Eastern Cape,Clinic,Kingwilliamstown,Noncampa Clinic,-32.907172,27.29937
Eastern Cape,Clinic,Grahamstown,NG Dlukulu Clinic,-33.278795,26.578084
Eastern Cape,Clinic,Peddie,Ndwayana Clinic,-33.160354,26.872451
Eastern Cape,Clinic,Matatiele,Likhetlane Clinic,-30.356069,28.527176
Eastern Cape,Clinic,Lady Grey,Lady Grey Hospital,-30.712482,27.21163
Eastern Cape,Clinic,Grahamstown,Temba TB Hospital,-33.309938,26.550712
Eastern Cape,Clinic,Alicedale,Kwa-Nonzwakazi Clinic,-33.317408,26.090721
Eastern Cape,Clinic,Addo,Addo Clinic,-33.546594,25.68993
Eastern Cape,Clinic,Somerset East,Beatrice Ngwentle Clinic,-32.726067,25.596479
Eastern Cape,Clinic,Elliot,Ncedolwethu Clinic,-31.330584,27.826357
Eastern Cape,Clinic,Dimbaza,Dimbaza CHC,-32.835462,27.214074
Eastern Cape,Clinic,Elliotdale,Hobeni Clinic,-32.184044,28.878765
Eastern Cape,Clinic,Mthatha,Bityi Clinic,-31.79406,28.52346
Eastern Cape,Clinic,Magwala Location,Magwala Clinic,-32.006743,27.549768
Eastern Cape,Clinic,Uitenhage,Orsmond TB Hospital,-33.747537,25.381374
Eastern Cape,Clinic,Patensie,Imizamo Yetho Clinic,-33.742686,24.796878
Eastern Cape,Clinic,Maclear,Kungisizwe Clinic,-30.828515,28.604944
Eastern Cape,Clinic,Ngcobo,Mnyolo Clinic,-31.494445,28.289151
Eastern Cape,Clinic,Lusikisiki,Mantlaneni Clinic,-31.237756,29.342718
Eastern Cape,Clinic,Port Elizabeth,New Brighton Clinic,-33.90498,25.59775
Eastern Cape,Clinic,Chatty,Chatty Clinic,-33.873729,25.495512
Eastern Cape,Clinic,Port Elizabeth,Kwamagxaki Clinic,-33.839579,25.533908
Eastern Cape,Clinic,Motherwell,Ikamvelihle Clinic,-33.793258,25.613033
Eastern Cape,Clinic,Port Elizabeth,Lunga Kobese Clinic,-33.885237,25.580512
Eastern Cape,Clinic,Mt Frere,Cancele Clinic,-30.848116,28.78742
Eastern Cape,Clinic,Tsolo,Ezingcuka Clinic,-31.300924,28.657982
Eastern Cape,Clinic,Matatiele,Afsondering Clinic,-30.179141,28.948674
Eastern Cape,Clinic,Kentane,Gqunqe Clinic,-32.468859,28.562297
Eastern Cape,Clinic,Bolotwa Village,Bolotwa Clinic (Confimvaba),-31.986428,27.198906
Eastern Cape,Clinic,Tabankulu,Dungu Clinic,-31.222931,29.206274
Eastern Cape,Clinic,Graaf Reinet,Nieu-Bethesda Clinic,-31.866433,24.563037
Eastern Cape,Clinic,Qumbu,Kalankomo Clinic,-30.9316,28.70536
Eastern Cape,Clinic,Tsolo,Gqaqhala Clinic,-31.282466,28.387733
Eastern Cape,Clinic,Ngcobo,Elucwecwe Clinic,-31.7357,27.88056
Eastern Cape,Clinic,Willowvale,Badi Clinic,-32.287058,28.662158
Eastern Cape,Clinic,King Williams Town,Masele Clinic,-32.936187,27.330889
Eastern Cape,Clinic,Mthatha,Ncambele Clinic,-31.501461,28.735943
Eastern Cape,Clinic,Tabankulu,Mnceba Clinic,-30.89352,29.210485
Eastern Cape,Clinic,Mt Frere,Ntlabeni Clinic,-30.737944,28.920331
Eastern Cape,Clinic,Kareedow,BJ Vorster (Kareedouw) Hospital,-33.951165,24.296093
Eastern Cape,Clinic,Mfundisweni,Mfundisweni Clinic,-30.898846,29.519502
Eastern Cape,Clinic,Mqanduli,Mqanduli CHC,-31.819878,28.766794
Eastern Cape,Clinic,Aberdeen,Masakhane Clinic (Aberdeen),-32.892649,23.158642
Eastern Cape,Clinic,Maclear,Katkop Clinic,-30.898011,28.54957
Eastern Cape,Clinic,Wllowvale,Nqadu Clinic (Mbhashe),-32.234666,28.420523
Eastern Cape,Clinic,Mqanduli,Mahlungulu Clinic (KSD),-31.57268,28.49288
Eastern Cape,Clinic,Humansdorp,PZ Meyer Hospital,-34.022949,24.757935
Eastern Cape,Clinic,Mqanduli,Ngqungqu Clinic,-31.865403,28.817595
Eastern Cape,Clinic,Libode,Nontsikelelo Biko Clinic,-31.473275,28.908798
Eastern Cape,Clinic,Graaff Reinet,Graaff-Reinet Day Hospital,-32.275577,24.555366
Eastern Cape,Clinic,Graaf Reinet,Horseshoe Clinic,-32.248514,24.534568
Eastern Cape,Clinic,Flagstaff,Bala Clinic,-30.99031,29.53658
Eastern Cape,Clinic,Ngcobo,Nkwenkwana Clinic,-31.77252,28.209782
Eastern Cape,Clinic,Bizana,Amadiba Clinic,-31.073091,30.179014
Eastern Cape,Clinic,Bukothole,St Francis Hospital,-30.691221,26.694036
Eastern Cape,Clinic,Cofimvaba,Banzi Clinic,-32.126371,27.520087
Eastern Cape,Clinic,Maluti,Maluti CHC,-30.265329,28.788844
Eastern Cape,Clinic,Mthatha,Langeni Clinic,-31.481478,28.484502
Eastern Cape,Clinic,Mthatha,Mhlahlane Clinic,-31.41913,28.54072
Eastern Cape,Clinic,Mthatha,Mpunzana Clinic,-31.801862,28.669877
Eastern Cape,Clinic,Quigney,Moore Street Clinic,-33.012865,27.915498
Eastern Cape,Clinic,East London,Cambridge Clinic,-32.978086,27.889687
Eastern Cape,Clinic,East London,Drake Road Clinic,-32.985686,27.929081
Eastern Cape,Clinic,East London,Fort Grey Clinic,-33.036973,27.8031
Eastern Cape,Clinic,East London,Greenfields Clinic,-33.03499,27.864482
Eastern Cape,Clinic,East London,Gompo C Jabavu Clinic,-33.011861,27.864001
Eastern Cape,Clinic,Eas London,Beacon Bay Clinic,-32.968498,27.938766
Eastern Cape,Clinic,Duncan Village,Gompo B Jwayi Clinic,-33.016742,27.858008
Eastern Cape,Clinic,Kirkwood,Sundays Valley (Kirkwood) Hospital,-33.394723,25.440339
Eastern Cape,Clinic,Mthatha,Lower Gungululu Clinic,-31.463056,28.821889
Eastern Cape,Clinic,Gonubie,Gonubie Clinic,-32.941637,28.021826
Eastern Cape,Clinic,Graaf Reinet,Midland Hospital,-32.261339,24.535453
Eastern Cape,Clinic,Tsolo,Lotana Clinic,-31.282835,28.930174
Eastern Cape,Clinic,Sterkspruit,Masibulele Clinic,-30.598462,27.735533
Eastern Cape,Clinic,Ngcobo,Manzana Clinic,-31.737231,28.009169
Eastern Cape,Clinic,East London,Collondale Satellite Clinic,-33.03977,27.818606
Eastern Cape,Clinic,Centane,Ngqusi Clinic,-32.489181,28.402078
Eastern Cape,Clinic,Clarkebury,Mdanjelwa Clinic,-31.805703,28.238095
Eastern Cape,Clinic,Clarkebury,Ntsimba Clinic,-31.859216,28.218207
Eastern Cape,Clinic,Tsolo,Ngcolora Clinic,-31.323777,28.89105
Eastern Cape,Clinic,East London,Kwelera Clinic,-32.823116,27.962895
Eastern Cape,Clinic,Maclear,Maclear Hospital,-31.075459,28.347012
Eastern Cape,Clinic,Mqanduli,Ngqwarha Clinic,-31.75998,28.75174
Eastern Cape,Clinic,Elliotdale,Kotyana Clinic,-32.043264,28.999443
Eastern Cape,Clinic,Ngcobo,Eluhewini Clinic,-31.705876,28.126829
Eastern Cape,Clinic,Levyvale,Uitenhage Hospital,-33.742323,25.405996
Eastern Cape,Clinic,Libode,Malusi Clinic,-31.578922,28.872701
Eastern Cape,Clinic,Ilitha,Ilita Clinic,-32.889788,27.534048
Eastern Cape,Clinic,Port Elizabeth,Livingstone Hospital,-33.925352,25.56967
Eastern Cape,Clinic,Elliot,Elliot Clinic,-31.333386,27.850213
Eastern Cape,Clinic,Port Elizabeth,Linton Grange Clinic,-33.943404,25.516064
Eastern Cape,Clinic,Port Elizabeth,Ludalasi Clinic,-31.637786,29.313878
Eastern Cape,Clinic,Mthatha,Ndibela Clinic,-31.83416,28.43121
Eastern Cape,Clinic,Indwe,Indwe Hospital,-31.4676,27.340628
Eastern Cape,Clinic,Idutywa,Mjanyana Clinic,-31.842552,28.095399
Eastern Cape,Clinic,Dutywa,Mjanyana Hospital,-31.83408,28.106128
Eastern Cape,Clinic,Lichtenberg,Idutywa Village CHC,-32.107531,28.3139
Eastern Cape,Clinic,Lichtenberg,Lower Mncuncuzo Clinic,-31.908552,27.597924
Eastern Cape,Clinic,Port Alfred,Marjorie Parrish TB Hospital,-33.56243,26.88126
Eastern Cape,Clinic,Willowmore,Willowmore Hospital,-33.300296,23.477751
Eastern Cape,Clinic,Whittlesea,Hukuwa Clinic,-32.155198,26.6598
Eastern Cape,Clinic,Bizana,Meje Clinic,-31.05028,29.8747
Eastern Cape,Clinic,Bisho,Bhisho Hospital,-32.82774,27.45516
Eastern Cape,Clinic,Lusikisiki,Bambisana PHC Clinic,-31.45022,29.45341
Eastern Cape,Clinic,Algoa Park,Dora Nginza Hospital,-33.8773,25.56
Eastern Cape,Clinic,Cofimvaba,Ngqwaru Clinic,-31.871563,27.849559
Eastern Cape,Clinic,Bisho,Donnington Clinic,-32.72367,27.42576
Eastern Cape,Clinic,Peddie,Nompumelelo (Peddie) Hospital,-33.20921,27.13244
Eastern Cape,Clinic,Fort Beaufort,Fort Beaufort Hospital,-32.7817,26.63483
Eastern Cape,Clinic,Fort Beaufort,Tower Hospital,-32.77024,26.63678
Eastern Cape,Clinic,Ibika,Ibika Clinic,-32.301684,28.213494
Eastern Cape,Clinic,Butterworth,Mqambeli Clinic,-32.420046,28.10859
Eastern Cape,Clinic,Stutterheim,Cumakala 2 Clinic,-32.56293,27.44868
Eastern Cape,Clinic,Mthatha,Mthatha General Hospital,-31.586633,28.764181
Eastern Cape,Clinic,Sterkspruit,Umlamli Hospital,-30.549714,27.467215
Eastern Cape,Clinic,Middelburg,Wilhelm Stahl (Middelburg) Hospital,-31.49173,24.99351
Eastern Cape,Clinic,Forest Hill,Elizabeth Donkin Hospital,-33.979422,25.627584
Eastern Cape,Clinic,Top Town,Frontier Hospital,-31.889209,26.871405
Eastern Cape,Clinic,King Williams Town,Grey Hospital,-32.87932,27.39579
Eastern Cape,Clinic,East London,Frere Hospital,-32.99599,27.89156
Eastern Cape,Clinic,Mdantsane,Cecilia Makiwane Hospital,-32.92785,27.74422
Eastern Cape,Clinic,Stutterheim,Cumakala 1 Clinic,-32.55717,27.44754
Eastern Cape,Clinic,Central,Port Elizabeth Provincial Hospital,-33.957052,25.597672
Eastern Cape,Clinic,Somerset East,Andries Vosloo Hospital,-32.731182,25.591224
Eastern Cape,Clinic,Barkly East,Cloete Joubert (Barkly East) Hospital,-30.967559,27.586734
Eastern Cape,Clinic,Cathcart,Cathcart Hospital,-32.29026,27.13691
Eastern Cape,Clinic,Lusikisiki,St Elizabeth's Hospital,-31.359015,29.566687
Eastern Cape,Clinic,Kieskammahoek,SS Gida Hospital,-32.67458,27.1435
Eastern Cape,Clinic,Ngqeleni,Canzibe Hospital,-31.809503,29.065801
Eastern Cape,Clinic,Nqamakwe,Nqamakwe CHC,-32.208453,27.935438
Eastern Cape,Clinic,Mount Fletcher,Hlankomo Clinic,-30.929601,28.419166
Eastern Cape,Clinic,Lichtenburg,Kuyasa CHC,-32.00716,27.58245
Eastern Cape,Clinic,Alice,Victoria Hospital,-32.77527,26.84678
Eastern Cape,Clinic,Engcobo,All Saints Hospital,-31.66098,28.046663
Eastern Cape,Clinic,Butterworth,Butterworth Hospital,-32.331642,28.137971
Eastern Cape,Clinic,Butterworth,Nozuko Clinic,-32.323487,28.16784
Eastern Cape,Clinic,Tsolo,Mhlakulo CHC,-31.401689,28.844363
Eastern Cape,Clinic,Sterkspruit,Empilisweni Hospital,-30.53231,27.37433
Eastern Cape,Clinic,Libode,Buchele Clinic,-31.495867,29.621311
Eastern Cape,Clinic,Mthatha,(Mthatha),-31.577228,28.706814
Eastern Cape,Clinic,Mthatha,Nelson Mandela Academic Hospital,-31.586633,28.764181
Eastern Cape,Clinic,Elliotdale,Madwaleni Hospital,-32.0965,28.88005
Eastern Cape,Clinic,Burgersdorp,Burgersdorp Hospital,-30.992951,26.31416
Eastern Cape,Clinic,Matatiele,Tayler Bequest Hospital (Matatiele),-30.347181,28.821537
Eastern Cape,Clinic,Ladybrand,Baroda Clinic,-32.00237,25.51043
Eastern Cape,Clinic,Mt. Frere,Madzikane kaZulu Memorial Hospital,-30.881997,29.002554
Eastern Cape,Clinic,Mount Frere,Sipetu Hospital,-31.091683,29.186149
Eastern Cape,Clinic,East London,Mpongo Clinic,-33.157751,27.526366
Eastern Cape,Clinic,East London,Mooiplaas Clinic,-32.737743,28.054039
Eastern Cape,Clinic,Peddie,Gwabeni Clinic,-33.09613,26.961981
Eastern Cape,Clinic,Butterworth,Hebe-Hebe Clinic,-32.23609,27.83032
Eastern Cape,Clinic,Qhoboshane Village Lady Frere,Boomplaas Clinic,-31.498463,27.185436
Eastern Cape,Clinic,Queenstown,Lizo Ngcana Clinic,-31.92061,26.85484
Eastern Cape,Clinic,Grahamstown,Middle Terrace Clinic,-33.300141,26.536497
Eastern Cape,Clinic,Midros,Midros Clinic,-31.50263,25.026222
Eastern Cape,Clinic,Sterkspruit,Bluegums Clinic,-30.547432,27.232095
Eastern Cape,Clinic,Kyamnadi,Lukhanyo Clinic,-33.817418,25.45617
Eastern Cape,Clinic,Dordrecht,Hlala Uphilile Clinic,-31.377135,27.037944
Eastern Cape,Clinic,Tsolo,St Lucy's Hospital,-31.297475,28.631337
Eastern Cape,Clinic,Queenstown,New Rest Clinic,-31.903765,26.870922
Eastern Cape,Clinic,Bizana,Hlamandana Clinic,-30.817607,29.720654
Eastern Cape,Clinic,Cofimvaba,Bilatye Clinic,-31.946554,27.365533
Eastern Cape,Clinic,Sub District,Ngxabangu Clinic,-31.845464,27.610413
Eastern Cape,Clinic,Grahamstown,Marselle Clinic,-33.679336,26.635121
Eastern Cape,Clinic,Lusikisiki,Khanyayo (Holy Cross) Clinic,-31.193877,29.845441
Eastern Cape,Clinic,Kwazakhele,Max Madlingozi Clinic,-33.869667,25.58314
Eastern Cape,Clinic,Libode,Mampondomiseni Clinic,-31.63437,29.09081
Eastern Cape,Clinic,Queenstown,Machibini Clinic (Queenstown),-31.920509,27.024771
Eastern Cape,Clinic,Whittlesea,Lahlangubo Clinic (Queenstown),-32.187208,26.665363
Eastern Cape,Clinic,Upper Gxulu Keiskammahoek,Gxulu Clinic,-32.645222,27.110173
Eastern Cape,Clinic,Braelyn,Braelyn Clinic,-33.000183,27.879621
Eastern Cape,Clinic,Walmer,Gqebera CHC,-33.986143,25.588864
Eastern Cape,Clinic,Motherwell,Motherwell NU 2 Clinic,-33.80062,25.60322
Eastern Cape,Clinic,Middledrift,Mgwalana Clinic,-32.75516,26.96204
Eastern Cape,Clinic,Mpharane Location,Mpharane Clinic,-30.263905,28.47763
Eastern Cape,Clinic,Healdtown,Healdtown Clinic,-32.73159,26.70145
Eastern Cape,Clinic,Maxhigwimi Location,Machibini Clinic (Kwabhaca),-30.72652,28.726172
Eastern Cape,Clinic,Middledrift,Amathole Basin Clinic,-32.69596,26.99311
Eastern Cape,Clinic,Mount Frere,Luyengweni Clinic,-30.653885,28.766053
Eastern Cape,Clinic,Butterworth,Gcaleka Clinic,-32.338445,28.319415
Eastern Cape,Clinic,Balfour,Balfour Clinic,-32.54578,26.68213
Eastern Cape,Clinic,Seymour,Kolomana Clinic,-32.42551,26.78879
Eastern Cape,Clinic,Intsika Yethu,Ntshingeni Clinic,-32.048493,27.425382
Eastern Cape,Clinic,Vrystad Loc,Mnyibashe Clinic,-32.128792,27.801319
Eastern Cape,Clinic,Vhari-Vhari,Mcambalala Clinic,-31.884384,27.494611
Eastern Cape,Clinic,Nqamakwe,Mpukane Clinic,-32.196401,27.937202
Eastern Cape,Clinic,Dundee Location,Dundee Clinic,-30.74694,29.42436
Eastern Cape,Clinic,Mpame,Mpame Clinic,-32.097922,29.041827
Eastern Cape,Clinic,Nqamakwa,Kotana Clinic,-32.14878,28.14648
Eastern Cape,Clinic,Lubaleko Loction,Lubaleko Clinic,-30.697234,29.369365
Eastern Cape,Clinic,Debe Nek,Debe Nek Clinic,-32.84583,27.13793
Eastern Cape,Clinic,Idutywa,Fort Malan Clinic,-32.150659,28.523716
Eastern Cape,Clinic,King Williams Town,Frankfort Clinic,-32.72026,27.45267
Eastern Cape,Clinic,Coldstream,Coldstream Satellite Clinic,-33.961849,23.700766
Eastern Cape,Clinic,Ngcobo,Lahlangubo Clinic (Ngcobo),-31.660669,27.867814
Eastern Cape,Clinic,Thohoyandou,Mapheleni Clinic,-30.78344,29.2536
Eastern Cape,Clinic,Thohoyandou,Mahlubini Clinic,-32.063537,27.628132
Eastern Cape,Clinic,Thohoyandou,Mvenyane Clinic,-30.547871,29.022961
Eastern Cape,Clinic,Thohoyandou,Nququ Clinic,-31.811801,27.613181
Eastern Cape,Clinic,Thohoyandou,Madlangala Clinic,-30.1058,28.3528
Eastern Cape,Clinic,Thohoyandou,Mount Hargreaves Clinic,-30.405267,28.706004
Eastern Cape,Clinic,Thohoyandou,Mtingwevu Clinic,-31.766053,27.589545
Eastern Cape,Clinic,Thohoyandou,Mawusheni Clinic,-31.94064,27.67016
Eastern Cape,Clinic,Thohoyandou,Fransbury Satellite Clinic,-31.964426,27.07867
Eastern Cape,Clinic,Thohoyandou,Keti Clinic,-32.01328,28.14104
Eastern Cape,Clinic,Thohoyandou,Ngceza Clinic,-31.97469,27.734427
Eastern Cape,Clinic,Thohoyandou,Isikhoba Clinic,-32.983049,27.610212
Eastern Cape,Clinic,Thohoyandou,Mbulukweza Clinic,-32.23262,27.71693
Eastern Cape,Clinic,Thohoyandou,Mwaca Clinic,-30.639996,29.237779
Eastern Cape,Clinic,Thohoyandou,Gqogqora Clinic,-31.98243,27.887051
Eastern Cape,Clinic,Thohoyandou,Cwecweni Clinic,-31.936795,28.054667
Eastern Cape,Clinic,Thohoyandou,Algoa Frail Care Centre,-33.87848,25.48888
Eastern Cape,Clinic,Jansenville,SAWAS Memorial (Jansenville),-32.941439,24.663206
Eastern Cape,Clinic,Mthatha,Bedford Orthopaedic Hospital,-31.586132,28.790481
Free State,Clinic,Heidedal,Opkoms Clinic,-29.14452,26.25227
Free State,Clinic,Willows,National Hospital Gateway Clinic,-29.12818,26.20703
Free State,Clinic,Northam,Lephoi Clinic,-30.504777,25.975274
Free State,Clinic,Reddersburg,Phekolong (Reddersburg) Clinic,-29.652603,26.166094
Free State,Clinic,Kroonstad,Bophelong (Kroonstad) Clinic,-27.634798,27.189161
Free State,Clinic,Brandfort,Marantha Clinic,-28.68743,26.462688
Free State,Clinic,Rosendal,Relebohile (Rosendal) Clinic,-28.509234,27.923094
Free State,Clinic,Harrismith,Lesedi Clinic,-28.247847,29.105476
Free State,Clinic,Sasolburg,Harry Gwala (Sasolburg) Clinic,-26.850036,27.878969
Free State,Clinic,Steynsrus,Sedibeng sa Bophelo Clinic,-27.945436,27.553952
Free State,Clinic,Theunissen,Masilo Clinic,-28.40988,26.70712
Free State,Clinic,Deneyville,Deneysville Clinic,-26.89089,28.097169
Free State,Clinic,Brandfort,Vaal Rock Clinic,-28.68152,26.46135
Free State,Clinic,Schonkenville,Schonkenville Clinic,-26.933283,27.462363
Free State,Clinic,Winburg,Kamohelo Clinic,-28.531027,27.001763
Free State,Clinic,Ficksburg,Meqheleng Clinic,-28.889958,27.877124
Free State,Clinic,Excelstor,Excelsior Clinic,-28.93298,27.0566
Free State,Clinic,Botshabelo,Jazzman Mokhothu Clinic,-29.25728,26.7139
Free State,Clinic,Botshabelo,TS Mahloko Clinic,-29.24308,26.71661
Free State,Clinic,Edenburg,Nelson Mandela Clinic,-29.73105,25.94157
Free State,Clinic,Botshabelo,Itumeleng (Botshabelo) Clinic,-29.2854,26.71965
Free State,Clinic,Mangaung,Batho Clinic,-29.13897,26.22728
Free State,Clinic,Phiritona,Sizabantu Clinic,-27.266284,27.977631
Free State,Clinic,Harrismith,Intabazwe Clinic,-28.252575,29.096992
Free State,Clinic,Ladybrand,Ladybrand Clinic,-29.19107,27.45902
Free State,Clinic,Bethlehem,Bakenpark Clinic,-28.218708,28.334062
Free State,Clinic,Meqheleng,Masebabatso Clinic,-28.904297,27.882939
Free State,Clinic,Luckhof,Luckhoff Clinic,-29.749866,24.786245
Free State,Clinic,Botshabelo,Pule Sefatsa Clinic,-29.26142,26.69123
Free State,Clinic,Lindey,Lindley Clinic,-27.881338,27.915887
Free State,Clinic,Gelukwaarts,Tshepong (Kroonstad) Clinic,-27.638847,27.174082
Free State,Clinic,Brentpark,Brentpark Clinic,-27.66853,27.1937
Free State,Clinic,Smithfield,Thembalethu Clinic,-30.212867,26.536054
Free State,Clinic,Memel,Memel Clinic,-27.677704,29.563683
Free State,Clinic,Namahadi,Phahameng (Frankfort) Clinic,-27.256396,28.513955
Free State,Clinic,Denesuville,Refengkgotso Clinic,-26.893497,28.07193
Free State,Clinic,Meloding,Meloding Clinic,-28.129962,26.897981
Free State,Clinic,Tumahole,Thusanong (Parys) Clinic,-26.919767,27.48572
Free State,Clinic,Sasolburg,Tsatsi SPS Clinic,-26.844407,27.855738
Free State,Clinic,Hennenman,Hennenman Clinic,-27.9724,27.01997
Free State,Clinic,Ficksburg,Soetwater Clinic,-28.874965,27.875909
Free State,Clinic,Marquard,Kokelong Clinic,-28.67794,27.413882
Free State,Clinic,Trompsburg,Mamello Clinic,-30.027177,25.779371
Free State,Clinic,Saai Plaas,Rearabetsoe (Virginia) Clinic,-28.062362,26.864448
Free State,Clinic,Senekal,Senekal Clinic,-28.322917,27.619398
Free State,Clinic,Rouxville,Winnie Mandela (Rouxville) Clinic,-30.407733,26.830899
Free State,Clinic,Harrismith,Harrismith Clinic,-28.272448,29.126816
Free State,Clinic,New Stands,Sehularo Tau Clinic,-30.261882,25.714614
Free State,Clinic,Philippolis,Philippolis Clinic,-30.266309,25.274863
Free State,Clinic,Oppermans,Oppermansgronde Clinic,-29.413521,24.744904
Free State,Clinic,Zamani,Zamani Clinic,-27.66872,29.56125
Free State,Clinic,Villiers,Qalabotjha Clinic,-27.014431,28.616206
Free State,Clinic,Soweto,Chris de Wet Clinic,-29.11475,26.21535
Free State,Clinic,Soweto,Boshof Clinic,-28.55042,25.2516
Free State,Clinic,Maquard,Nothnagel Clinic,-28.676592,27.420239
Free State,Clinic,Rammolutsi,Rammulotsi Clinic,-27.195411,26.953781
Free State,Clinic,Vredefort,Relebohile (Vredefort) Clinic,-27.001756,27.376143
Free State,Clinic,Lindley,Leseding Clinic,-27.882066,27.90761
Free State,Clinic,Meqheleng,Phomolong (Ficksburg) Clinic,-28.89358,27.882392
Free State,Clinic,Botshabelo,Daniel Ngatane Clinic,-29.22063,26.67047
Free State,Clinic,Oranjeville,Metsimaholo Clinic,-26.979165,28.210984
Free State,Clinic,Jumahole,Tumahole Clinic,-26.916282,27.467778
Free State,Clinic,Bainsvlei,Bainsvlei Clinic,-29.0645,26.12987
Free State,Clinic,Bloemfontein,Langenhovenpark Clinic,-29.0978,26.15587
Free State,Clinic,Botleng Location Delmas,Molefi Tau Clinic,-29.21092,26.71927
Free State,Clinic,Bothaville,Kgotsong (Bothaville) Clinic,-27.3902,26.64423
Free State,Clinic,Frankfort,Philani Clinic,-27.267877,28.504511
Free State,Clinic,Ventersburg,Mmamahabane Clinic,-28.09173,27.14768
Free State,Clinic,Hertzogville,Tshwaraganang (Hertzogville) Clinic,-28.12308,25.49985
Free State,Clinic,Bultfontein,Phahameng (Bultfontein) Clinic,-28.3007,26.14848
Free State,Clinic,Phuthuditjaba,Tshirela Clinic,-28.622886,28.804302
Free State,Clinic,Viljoenskroon,PAX CHC,-27.189062,26.949769
Free State,Clinic,Vredefort,Kananelo CHC,-27.004423,27.368437
Free State,Clinic,Constantia,Lesedi CHC,-27.640864,27.192192
Free State,Clinic,Warden,Thusa Bophelo Clinic,-27.835895,28.978066
Free State,Clinic,Selosesha,Gaongalelwe Clinic,-29.168317,26.801011
Free State,Clinic,Westedene,Westdene Clinic,-29.10278,26.20763
Free State,Clinic,Tweelines,Rainbow Clinic,-27.553707,28.513282
Free State,Clinic,Tweespruit,Thaba Phatswa Clinic,-29.312954,27.124904
Free State,Clinic,Kgotsong,K-Maile Clinic,-27.38379,26.65739
Free State,Clinic,Villiers,Villiers Clinic,-27.028574,28.59694
Free State,Clinic,Highflats,Fateng Tse Ntsho Clinic,-28.298987,27.967356
Free State,Clinic,Rocklands,Thusong Clinic,-29.18472,26.23462
Free State,Clinic,Phiritona,Relebohile (Heilbron) Clinic,-27.271558,27.975467
Free State,Clinic,Lourier Park,Lourierpark Clinic,-29.17788,26.17435
Free State,Clinic,Bayswater,Bayswater Clinic,-29.08478,26.24407
Free State,Clinic,Reitz,Reitz Clinic,-27.80303,28.41965
Free State,Clinic,Petrus Steyn,Rearabetswe Clinic,-27.65412,28.128079
Free State,Clinic,Hydropark,Hydropark Clinic,-30.59,25.49
Free State,Clinic,Cornelia,Phekolong (Cornelia) Clinic,-27.228481,28.850725
Free State,Clinic,Cornelia,Bohlokong Clinic,-28.224197,28.316085
Free State,Clinic,Odendaalsrus,Thabong Clinic,-27.96402,26.79163
Free State,Clinic,Witslehoil,Riverside Clinic,-28.543744,28.81292
Free State,Clinic,Witsieshoek,Tina Moloi Clinic,-28.609704,28.85617
Free State,Clinic,Virginia,OR Tambo Clinic,-28.149773,26.887343
Free State,Clinic,Parys,Parys Clinic,-26.899327,27.457071
Free State,Clinic,Witsieshoe,Ma-haig Clinic,-28.519185,28.801373
Free State,Clinic,Frankfort,Frankfort Clinic,-27.277835,28.492696
Free State,Clinic,Soutpan,Ikgomotseng Clinic,-28.736356,26.1049
Free State,Clinic,Vrede,Bophelong (Vrede) Clinic,-27.418329,29.173639
Free State,Clinic,Bloemfontain,MUCPP CHC,-29.17923,26.24293
Free State,Clinic,Koppies,Kgotso Clinic,-27.23415,27.58748
Free State,Clinic,Jan Kempdorp,Heidedal CHC,-29.138897,26.245611
Free State,Clinic,Wesselsbron,Albert Luthuli Memorial Clinic,-27.8362,26.3668
Free State,Clinic,Sasolburg,Sasolburg Clinic,-26.81798,27.8277
Free State,Clinic,Bethlehem,Bethlehem Clinic,-28.233707,28.306156
Free State,Clinic,Alitsieshoek,Boiketlo Clinic,-28.549663,28.825995
Free State,Clinic,Smithfield,Stoffel Coetzee Hospital,-30.223197,26.523206
Free State,Clinic,Thohoyandou,Virginia Clinic,-28.10762,26.86413
Free State,Clinic,Sasolburg,Zamdela CHC,-26.842064,27.846088
Free State,Clinic,Fauresmith,Fauresmith Clinic,-29.744624,25.309308
Free State,Clinic,Doorn,Welkom Clinic,-27.98545,26.7414
Free State,Clinic,Welkom,Winburg Clinic,-28.52991,26.99409
Free State,Clinic,Welkom,Hani Park Clinic,-27.98719,26.82359
Free State,Clinic,Henneman,Phomolong (Hennenman) Clinic,-28.014,27.08118
Free State,Clinic,Petrusburg,Bophelong (Petrusburg) CHC,-29.118907,25.417967
Free State,Clinic,Marquard,Mamello CHC,-28.66682,27.42652
Free State,Clinic,Eshowe,Central Park Clinic,-29.120731,26.22297
Free State,Clinic,Fichardtpark,Fichardtpark Clinic,-29.14387,26.1818
Free State,Clinic,Freedom Square,Freedom Square Clinic,-29.17383,26.25365
Free State,Clinic,Koppies,Kganya CHC,-27.23415,27.58748
Free State,Clinic,Hobhouse,Hobhouse Clinic,-29.521429,27.147254
Free State,Clinic,Ditlhake,Ethembeni Clinic,-29.393407,24.991504
Free State,Clinic,Tweespruit,Borwa Clinic,-29.19623,27.03003
Free State,Clinic,Tweespruit,Tweespruit Clinic,-29.185178,27.029634
Free State,Clinic,Ladybrand,Ikaheng Clinic,-29.16813,27.45985
Free State,Clinic,Tshepong,Tshepong (Verkeerdevlei) Clinic,-28.8401,26.76212
Free State,Clinic,Dealesville,Dealesville Clinic,-28.67175,25.76528
Free State,Clinic,Van Stadensnis,Vanstadensrus Clinic,-29.9852,27.0136
Free State,Clinic,Van Stadensnis,Boitumelo (Senekal) Clinic,-28.34366,27.631297
Free State,Clinic,Zastron,Matlakeng Clinic,-30.295436,27.094157
Free State,Clinic,Koonstad,Thusanong (Kroonstad) Clinic,-27.648774,27.19018
Free State,Clinic,Kagisanong,Kagisanong Clinic,-29.19625,26.24503
Free State,Clinic,Clarens,Itumeleng (Clarens) Clinic,-28.522482,28.421194
Free State,Clinic,Clocolan,Clocolan Clinic,-28.90981,27.57402
Free State,Clinic,Kanana Village,Tebang Clinic,-28.525901,28.872349
Free State,Clinic,Jacobsdal,Jacobsdal Clinic,-29.13003,24.771692
Free State,Clinic,Phuthadijhaba,Bolata Clinic,-28.563647,28.795654
Free State,Clinic,Clocolan,Hlohlolwane Clinic,-28.911489,27.551651
Free State,Clinic,Arwuton,Leratswana Clinic,-28.027951,27.843851
Free State,Clinic,Jagersfontein,Diamond/Diamant Hospital,-29.760438,25.423361
Free State,Clinic,Vrede,Phumelela Hospital,-27.433556,29.155569
Free State,Clinic,Turfontein,Thabang Clinic,-28.609871,28.829767
Free State,Clinic,Allanridge,Allanridge Clinic,-27.753573,26.644775
Free State,Clinic,Zamdela,Thusanang (Sasolburg) Clinic,-26.845085,27.864598
Free State,Clinic,Fickburg,Phuthuloha Hospital,-28.881586,27.87173
Free State,Clinic,Welkom,Boithusong Clinic,-27.85522,26.76047
Free State,Clinic,Kutlwanong,Geneva Clinic,-27.850757,26.748439
Free State,Clinic,Central Bhm,Dihlabeng Hospital,-28.23317,28.3197
Free State,Clinic,Uitsoek Hoek,Mphatlalatsane Clinic,-28.509611,28.836869
Free State,Clinic,Uitsoek Hoek,Thebe Hospital,-28.271947,29.13666
Free State,Clinic,Senekal,Itemoheng Hospital,-28.32745,27.606695
Free State,Clinic,Senekal,Hoopstad Clinic,-27.83235,25.91473
Free State,Clinic,Witsieshoek,Makeneng Clinic,-28.614535,28.821457
Free State,Clinic,Uitsighoek,Marakong Clinic,-28.564801,28.84733
Free State,Clinic,Qwaqwa,Blue Gum Bush Clinic,-28.48243,28.848706
Free State,Clinic,Phuthaditjhaba,Phuthaditjhaba Clinic,-28.520245,28.820617
Free State,Clinic,Phuthaditjhaba,Matsieng Clinic,-28.601827,28.800597
Free State,Clinic,Phuthaditjhaba,Qholaqhwe Clinic,-28.522866,28.855073
Free State,Clinic,Uitsighoek,Malesaona Clinic,-28.559901,28.720753
Free State,Clinic,Uitsighoek,Monontsha Clinic,-28.565432,28.744397
Free State,Clinic,Uitsighoek,Thaba Bosiu Clinic,-28.598146,28.883338
Free State,Clinic,Bethlehem,Mphohadi Clinic,-28.197995,28.325645
Free State,Clinic,Phuthadijhaba,Dinkweng Clinic,-28.627989,28.896535
Free State,Clinic,Witsieshoek,Sekamotho Mota Clinic,-28.648787,28.85226
Free State,Clinic,Hammanskraal,Bloemspruit Clinic,-29.13732,26.27142
Free State,Clinic,Phuthaditjhaba,Kopanong Clinic,-28.331488,28.698387
Free State,Clinic,Allanridge,Bophelong (Allanridge) Clinic,-27.777146,26.657327
Free State,Clinic,Thabong,Kgotsong (Welkom) Clinic,-27.97002,26.8207
Free State,Clinic,Thabong,Matjhabeng Clinic,-27.96738,26.79838
Free State,Clinic,Thabong Welkom,Bophelong (Welkom) Clinic,-27.969,26.83533
Free State,Clinic,Kutlwanong,Phedisanang Clinic,-27.739655,26.0214712
Free State,Clinic,Senekal,Matwabeng Clinic,-28.344392,27.628512
Free State,Clinic,Bothaville,Bothaville Clinic,-27.39253,26.61942
Free State,Clinic,Puthadijaba,Makhalaneng Clinic,-28.550874,28.791306
Free State,Clinic,Riebeeckstad,Riebeeckstad Clinic,-27.93358,26.81187
Free State,Clinic,Theunissen,Lusaka Clinic,-28.4166777,26.697845
Free State,Clinic,Vrede,Vrede Clinic,-27.434361,29.155285
Free State,Clinic,Wepener,Lebohang Clinic,-29.72055,27.02715
Free State,Clinic,Clocolan,John Daniel Newberry Hospital,-28.910094,27.573522
Free State,Clinic,Odendaalsrus,Thusanong Hospital,-27.87735,26.65922
Free State,Clinic,Welkom,Tshepong (Welkom) Clinic,-27.95773,26.83607
Free State,Clinic,Cryton,Universitas (C) Hospital,-29.116587,26.183746
Free State,Clinic,Tiger River,Tiger River Clinic,-29.12047,26.78943
Free State,Clinic,Witsiehoek,Elizabeth Ross Hospital,-28.588888,28.817369
Free State,Clinic,Witishoek,Nthabiseng Clinic,-28.5908,28.78217
Free State,Clinic,Dewetsdorp,Dewetsdorp One Stop Clinic,-29.58527,26.66885
Free State,Clinic,Loeriesfontein,Katleho Hospital,-28.11057,26.85798
Free State,Clinic,Reitz,Petsana Clinic,-27.804,28.44652
Free State,Clinic,Ladybrand,Mantsopa Hospital,-29.202793,27.44822
Free State,Clinic,Ladybrand,Manyatseng Clinic,-29.1724,27.4656
Free State,Clinic,Hoopstard,Mohau Hospital,-27.83235,25.91538
Free State,Clinic,Kroonstad,Hill Street Clinic,-27.662993,27.239978
Free State,Clinic,Kroonstad,Seeisoville Clinic,-27.653929,27.210549
Free State,Clinic,Welkom,Khotalong Clinic,-28.13183,26.90292
Free State,Clinic,Odendaalsrus,AM Kruger Clinic,-27.87308,26.68533
Free State,Clinic,Winburg,Winburg Hospital,-28.5098,27.00802
Free State,Clinic,Sasolburg,Metsimaholo Hospital,-26.803029,27.82768
Free State,Clinic,Bloemfointain,Pelonomi Hospital,-29.14269,26.2442
Free State,Clinic,Welkom Thabong,Bongani Hospital,-27.95315,26.7862
Free State,Clinic,Butterworth,Embekweni Hospital,-30.29215,27.07542
Free State,Clinic,Kroonstad,Boitumelo Hospital,-27.644355,27.213199
Free State,Clinic,Francefort,Mafube Hospital,-27.278414,28.50022
Free State,Clinic,Parys,Parys Hospital,-26.895794,27.471882
Free State,Clinic,Reitz,Nketoana Hospital,-27.802701,28.419555
Free State,Clinic,Botshabelo,Dr Pedro Memorial Clinic,-29.20793,26.68177
Free State,Clinic,Botshabelo,Bophelong (Botshabelo) Clinic,-29.2778,26.73307
Free State,Clinic,Botshabelo,Maletsatsi Mabaso Clinic,-29.25477,26.73198
Free State,Clinic,Botshabelo,Botshabelo Hospital,-29.23222,26.7159
Free State,Clinic,Botshabelo,Harry Gwala (Botshabelo) Clinic,-29.287732,26.711908
Free State,Clinic,Botshabelo,Winnie Mandela (Botshabelo) Clinic,-29.21828,26.70333
Free State,Clinic,Botshabelo,Botshabelo Industrial Clinic,-29.20417,26.70412
Free State,Clinic,Botha Ville,Nala Hospital,-27.39465,26.61783
Free State,Clinic,Thaba Nchu,Dinaane Clinic,-29.22735,26.831035
Free State,Clinic,Selosesha,Dr JS Moroka Hospital,-29.20457,26.83458
Free State,Clinic,Thaba Nchu,Kgalala Clinic,-28.98888,26.80427
Free State,Clinic,Moroto,Seadimo Clinic,-29.10045,26.9845
Free State,Clinic,Selosesha,Mafane Clinic,-29.19897,26.81338
Free State,Clinic,Thaba Nchu,Sediba Clinic,-29.02893,26.94302
Free State,Clinic,Selosesha,Tweefontein Clinic,-29.37017,26.92562
Free State,Clinic,Selosesha,Phetogo Clinic,-29.36777,26.8368
Free State,Clinic,Selosesha,Thaba Nchu Clinic,-29.21871,26.848073
Free State,Clinic,Madibogo,Paballong Clinic,-28.555154,28.776782
Free State,Clinic,Phuthaditjhaba,Namahali Clinic,-28.583799,28.829549
Free State,Clinic,Witsieshoek,Tseki Clinic,-28.585681,28.772019
Free State,Clinic,Ladybrand,Mauersnek Clinic,-29.19032,27.43953
Free State,Clinic,Bohlokeng,Phekolong Hospital,-28.217734,28.327426
Free State,Clinic,Krugersdorp,National Hospital,-29.12721,26.20619
Free State,Clinic,Bloemfointain,Hospital,-29.133855,26.209265
Free State,Clinic,Plessislear,Mokwena Clinic,-29.19323,26.840959
Free State,Clinic,Phuthaditjaba,Hospital,-28.535926,28.805358
Free State,Clinic,L Section,Potlako Motlohi Clinic,-29.27168,26.72317
Free State,Clinic,Welkom,Bronville Clinic,-27.996618,26.812938
Free State,Clinic,Nyaleallong,Leratong Clinic,-27.780743,26.657483
Free State,Clinic,Welkom,Bophelong (Odendaalsrus) Clinic,-27.85918,26.77652
Free State,Clinic,Uitsighoek,Makoane Clinic,-28.534665,28.88815
Free State,Clinic,Uitsighoek,Eva Mota Clinic,-28.633441,28.86853
Free State,Clinic,Heibron,Tokollo Hospital,-27.289189,27.961691
Free State,Clinic,Heilbron,Heilbron Clinic,-27.292016,27.967882
Free State,Clinic,Rheederspark,Rheederspark Clinic,-27.95453,26.72002
Free State,Clinic,Mashareg,Reitumetse Clinic,-28.620655,28.195531
Free State,Clinic,Fauna,Fauna Clinic,-29.16553,26.18987
Free State,Clinic,Jaggersfontein,Itumeleng (Jagersfontein) Clinic,-29.767032,25.434632
Free State,Clinic,Sandersville,Sandersville Clinic,-27.274955,27.96499
Free State,Clinic,Ventersburg,Hope CHC,-28.0817,27.14397
Free State,Clinic,Bloemfontein,Mmabana Clinic,-29.15072,26.24172
Free State,Clinic,Villiers,Phedisong Clinic,-27.02127,28.627973
Free State,Clinic,Highway Junction,Highway Junction Clinic,-28.28852,29.13155
Free State,Clinic,Klipfontein,Klipfontein Clinic,-29.22954,26.983125
Free State,Clinic,Voortrekker Street,Paul Roux Clinic,-28.296049,27.955559
Free State,Clinic,Bloemfontein,Free State Psychiatric Complex,-29.126948,26.216183
Free State,Clinic,Phuthaditjhaba,Mofumahadi Manapo Mopeli,-28.536705,28.804824
Gauteng,Clinic,Rensburg,Rensburg Clinic,-26.52404,28.37193
Gauteng,Clinic,Pretoria North,Jack Hindon Clinic,-25.66656,28.16902
Gauteng,Clinic,Bassonia,Bezvalley Clinic,-26.186704,28.088153
Gauteng,Clinic,Heidelberg,Ratanda Ext 23 Clinic,-26.57477,28.32026
Gauteng,Clinic,Daspoort,Doornpoort Satellite Clinic,-25.6559,28.25141
Gauteng,Clinic,Rosettenville,South Rand Hospital,-26.252571,28.0628
Gauteng,Clinic,Carltonville,Carletonville Central Clinic,-26.35791,27.39726
Gauteng,Clinic,Noordgesig,Noordgesig Prov Clinic,-26.22547,27.936081
Gauteng,Clinic,Rosettenville,Rosettenville Clinic,-26.244888,28.053884
Gauteng,Clinic,Nellmapius,Nellmapius Clinic,-25.73672,28.35031
Gauteng,Clinic,Ekurhuleni,Olifantsfontein Clinic,-25.956484,28.22838
Gauteng,Clinic,Danville,Danville Clinic,-25.74772,28.13359
Gauteng,Clinic,Randgate,Randgate Clinic,-26.16919,27.68361
Gauteng,Clinic,Orlando West,Shanty Clinic,-26.229067,27.917413
Gauteng,Clinic,Thokoza,Phola Park CHC,-26.371772,28.132076
Gauteng,Clinic,Benoni,Lethabong Clinic,-26.222561,28.296589
Gauteng,Clinic,Sebokeng,Johan Deo Clinic,-26.60141,27.80894
Gauteng,Clinic,Ekangala,Dark City CHC,-25.674777,28.726485
Gauteng,Clinic,Kina-Thema,Thembelisha Clinic,-26.308314,28.406892
Gauteng,Clinic,Katlehong,Magagula Clinic,-26.427584,28.191513
Gauteng,Clinic,Venterspost,Venterspos Clinic,-26.27367,27.62203
Gauteng,Clinic,Endicott,Vischuil Clinic,-26.2993,28.58501
Gauteng,Clinic,Hammanskraal,Kekana Gardens Clinic,-25.378319,28.308393
Gauteng,Clinic,Cullinan,Refilwe Clinic,-25.6378,28.530663
Gauteng,Clinic,Germiston,Dukathole Clinic,-26.22604,28.190854
Gauteng,Clinic,Boksburg,Van Dyk Park Clinic,-26.257122,28.292799
Gauteng,Clinic,Ekangala,Ekangala Clinic,-25.697721,28.752589
Gauteng,Clinic,Orange Farm,Orange Farm Ext 7 Clinic,-26.481881,27.848239
Gauteng,Clinic,Orange Farm,Boikhutsong Clinic,-25.44835,28.1125
Gauteng,Clinic,Jabulani,Zola Gateway Clinic,-26.239482,27.854006
Gauteng,Clinic,Bekkersdal,Bekkersdal East Clinic,-26.28345,27.70399
Gauteng,Clinic,Riverlia,Riverlea Major Clinic,-26.212495,27.976416
Gauteng,Clinic,Orlando,Elias Motsoaledi Clinic,-26.21833,27.915648
Gauteng,Clinic,Lenasia,Thembelihle Clinic,-26.34063,27.86636
Gauteng,Clinic,Roodepoort,Sol Plaatjies Clinic,-26.162742,27.86061
Gauteng,Clinic,Soweto,Mofolo CHC,-26.248316,27.884022
Gauteng,Clinic,Kwa-Xuma,Tladi LA Clinic,-26.25036,27.84012
Gauteng,Clinic,Vosloorus,Vosloorus Ext 9 Clinic,-26.348032,28.218515
Gauteng,Clinic,Vanderbijlpark,Albertina Sisulu Clinic,-26.57697,27.84864
Gauteng,Clinic,Roodepoort,Rex Street Clinic,-26.158861,27.865276
Gauteng,Clinic,Carltonville,Blyvooruitsig Clinic,-26.39638,27.37695
Gauteng,Clinic,Lawley 1,Lawley Clinic,-26.391423,27.81197
Gauteng,Clinic,Noordheuwel,Noordheuwel Satellite Clinic,-26.0896,27.80777
Gauteng,Clinic,Marshaltown,Jeppe Street Clinic,-26.20617,28.06758
Gauteng,Clinic,Soweto,Tladi Prov Clinic,-26.254048,27.841512
Gauteng,Clinic,Zonkizizwe Katlehong,Zonkizizwe 1 Clinic,-26.406878,28.187144
Gauteng,Clinic,Kagiso,Maki Legwete Clinic,-26.17901,27.78618
Gauteng,Clinic,Hillbrow,17 Esselen Street Clinic,-26.190896,28.044939
Gauteng,Clinic,Langaville,Andries Raditsela Clinic,-26.33434,28.38866
Gauteng,Clinic,Pretoria West,Folang Clinic,-25.74971,28.174
Gauteng,Clinic,Chiawelo,Chiawelo CHC,-26.279299,27.865437
Gauteng,Clinic,Chiawelo,Khumalo Clinic,-26.383657,28.161972
Gauteng,Clinic,Fochville,Kokosi Clinic,-26.49437,27.46834
Gauteng,Clinic,Soshanguve,Soshanguve CHC,-25.49123,28.09431
Gauteng,Clinic,Evaton North,Mpumelelo (Evaton North) Clinic,-26.51176,27.85491
Gauteng,Clinic,Soshanguve,Soshanguve 2 Clinic,-25.51308,28.1142
Gauteng,Clinic,Laudium,Laudium Clinic,-25.78768,28.10701
Gauteng,Clinic,Payneville,Payneville Clinic,-26.23282,28.45711
Gauteng,Clinic,Germiston,Leondale Clinic,-26.30198,28.18256
Gauteng,Clinic,Mogale City,Dr Ramirez Martinez Clinic,-26.07464,27.75266
Gauteng,Clinic,Soweto,Senaoane Clinic,-26.273834,27.864938
Gauteng,Clinic,Mamelodi East,Holani Clinic,-25.70436,28.37559
Gauteng,Clinic,Pretoria,Phahameng Clinic,-25.7221,28.3926
Gauteng,Clinic,Evaton,Beverly Hills Clinic,-26.54248,27.82381
Gauteng,Clinic,Vanderbijlpark,Tshepiso Clinic,-26.6741,27.86821
Gauteng,Clinic,Boipatong,Boipatong CHC,-26.67216,27.84787
Gauteng,Clinic,Springs,First Avenue Clinic,-26.25051,28.444317
Gauteng,Clinic,Boitumelo,Boitumelo Clinic,-26.56237,27.82432
Gauteng,Clinic,Palmsprings,Dr Helga Kuhn Clinic,-26.49727,27.83708
Gauteng,Clinic,Vosloorus,Vosloorus Ext 28 Clinic,-26.377715,28.203143
Gauteng,Clinic,Soshanguve,KT Motubatse Clinic,-25.58392,28.08917
Gauteng,Clinic,Germiston,Katlehong North Clinic,-26.312632,28.155022
Gauteng,Clinic,Vosloorus,Tswelopele Clinic,-26.32825,28.19216
Gauteng,Clinic,Vereeniging,Market Avenue Clinic,-26.6737,27.92679
Gauteng,Clinic,Vereeniging,Chief Albert Luthuli Clinic,-26.158635,28.387513
Gauteng,Clinic,Germiston,Rondebult Clinic,-26.311935,28.210595
Gauteng,Clinic,Mountain View,Mountain View Clinic,-26.431908,27.861698
Gauteng,Clinic,Vlakfontein Settlement,Vlakfontein Clinic,-26.371493,27.876804
Gauteng,Clinic,Vosloorus,Jabulane Dumane CHC,-26.367295,28.218952
Gauteng,Clinic,Mamelodi East,Stanza Bopape II Clinic,-25.7144,28.4155
Gauteng,Clinic,Finetown,Finetown Clinic,-26.414188,27.858217
Gauteng,Clinic,Motsamai Section Katlehong,Motsamai Clinic,-26.325499,28.162993
Gauteng,Clinic,Dobsonville,Green Village Porta Cabin Clinic,-26.236903,27.804849
Gauteng,Clinic,Mabopane,Tlamelong Clinic,-25.51416,28.07147
Gauteng,Clinic,Saulsville,Phomolong Clinic,-25.7804,28.0427
Gauteng,Clinic,Phenduka Thokoza,Phenduka Clinic,-26.339783,28.141876
Gauteng,Clinic,Khutsong,Khutsong East Clinic,-26.31549,27.32437
Gauteng,Clinic,Soweto,Meadowlands Zone 2 Prov Clinic,-26.219355,27.899035
Gauteng,Clinic,Bronkhorspruit,Rethabiseng Clinic,-25.723197,28.716972
Gauteng,Clinic,Bronkhorspruit,Dr George Mukhari Hospital,-25.61904,28.01216
Gauteng,Clinic,Ennerdale,Protea South Clinic,-26.285585,27.840407
Gauteng,Clinic,Jabavu,Jabavu/Vusabantu Clinic,-26.253394,27.871703
Gauteng,Clinic,Soshanguve,Maria Rantho Clinic,-25.53899,28.10365
Gauteng,Clinic,Rockville,Moroka Clinic,-26.261762,27.865939
Gauteng,Clinic,Hammanskraal,Refentse Clinic (Odi),-25.39589,28.15562
Gauteng,Clinic,Saulsville,Saulsville Clinic,-25.77869,28.06719
Gauteng,Clinic,Evaton,Osizweni Clinic,-26.5225,27.83468
Gauteng,Clinic,Dobsonville,Siphumlile Clinic,-26.222248,27.83265
Gauteng,Clinic,Roodepoort,Tshepisong Clinic,-26.19072,27.81243
Gauteng,Clinic,Eersterus,New Eersterus Clinic,-25.40667,28.14467
Gauteng,Clinic,Jeppestown,Jeppe Clinic,-26.20617,28.06758
Gauteng,Clinic,Doornkop,Bophelong (Region 6) Clinic,-26.24417,27.80778
Gauteng,Clinic,Bekkersdal,Bekkersdal West CHC,-26.28619,27.6974
Gauteng,Clinic,Klopper Park,Klopper Park Clinic,-26.146835,28.197473
Gauteng,Clinic,Vosloorus,Vosloorus Poly Clinic,-26.349342,28.197825
Gauteng,Clinic,Soweto,Diepkloof LA Clinic,-26.237208,27.946145
Gauteng,Clinic,Rietvallei,Rietvallei 2 and 3 Clinic,-26.185649,27.754244
Gauteng,Clinic,Blybank,Blybank Satellite Clinic,-26.342542,27.472684
Gauteng,Clinic,Welverdien,Welverdiendt Clinic,-26.38687,27.27646
Gauteng,Clinic,Nigel,Lucky Mkhwanazi Clinic,-26.385464,28.415054
Gauteng,Clinic,Fochville,Fochville Clinic,-26.48662,27.48767
Gauteng,Clinic,Mojaneng,Kekanastad Clinic,-25.35872,28.245643
Gauteng,Clinic,Mookgophong,Thlokomelong Clinic,-26.5479,27.84962
Gauteng,Clinic,Alexandra,4th Avenue Clinic,-26.1051,28.09007
Gauteng,Clinic,Rooderoort,Itireleng CHC,-26.217873,27.871354
Gauteng,Clinic,Heidelberg,Heidelberg Clinic,-26.503774,28.351947
Gauteng,Clinic,Wedela,Wedela Clinic,-26.46024,27.38799
Gauteng,Clinic,Zenzele,Zenzele Clinic,-26.26115,27.69512
Gauteng,Clinic,Windsor,Windsor Clinic,-26.122411,27.975698
Gauteng,Clinic,Orchards,Orchards Clinic,-26.154668,28.085518
Gauteng,Clinic,Sebokeng,Zone 3 Clinic,-26.52878,27.87136
Gauteng,Clinic,Garankua,Phedisong 4 CHC,-25.59972,27.98139
Gauteng,Clinic,Eldorado,Eldorado Park Ext 9 Clinic,-26.299956,27.889738
Gauteng,Clinic,Khutsong,Khutsong CHC,-26.34856,27.32663
Gauteng,Clinic,Bosmont,Bosmont Clinic,-26.189144,27.957303
Gauteng,Clinic,Khutsong,Khutsong Ext 3 Clinic,-26.3417,27.30307
Gauteng,Clinic,Sebokeng,Zone 17 Clinic,-26.59576,27.83207
Gauteng,Clinic,Soshanguve,Soshanguve Block TT Clinic,-25.55992,28.06515
Gauteng,Clinic,Winterveldt,Winterveldt Clinic,-25.40371,28.02454
Gauteng,Clinic,Orlando East,Orlando Prov Clinic,-26.237367,27.919191
Gauteng,Clinic,Saulsville,Bophelong (Region C) Clinic,-25.77192,28.0534
Gauteng,Clinic,Mohlakeng,Ya Rona Clinic,-26.2351,27.6985
Gauteng,Clinic,Zondi 2,Zondi Clinic,-26.232717,27.865939
Gauteng,Clinic,Tembisa,Erin Clinic,-25.994213,28.223432
Gauteng,Clinic,Wielers Farm,Weilers Farm Clinic,-26.404822,27.901848
Gauteng,Clinic,Mamelodi Wast,Mamelodi West Clinic,-25.7142,28.3488
Gauteng,Clinic,Westonaria,Simunye Clinic (Westonaria),-26.32197,27.68225
Gauteng,Clinic,Kwa-Thema,Kwa-Thema CHC,-26.293768,28.39129
Gauteng,Clinic,Kingsway,Dan Kubheka Clinic,-26.187793,28.394479
Gauteng,Clinic,Geluksdal,Geluksdal Clinic,-26.34236,28.361042
Gauteng,Clinic,Benoni,Mary Moodley Memorial Clinic,-26.213975,28.300647
Gauteng,Clinic,Brackenhurst,Brackenhurst Clinic,-26.31419,28.097271
Gauteng,Clinic,Honeydew,Zandspruit Clinic,-26.061486,27.901588
Gauteng,Clinic,Sebokeng,Sebei Motsoeneng Clinic,-26.56419,27.84229
Gauteng,Clinic,Soweto,Michael Maponya Prov Clinic,-26.263189,27.908911
Gauteng,Clinic,Kananelo Street Sebokeng,Zone 13 Clinic,-26.57785,27.83586
Gauteng,Clinic,Diepkloof,Diepkloof Prov Clinic,-26.240192,27.94776
Gauteng,Clinic,Crosby,Crosby Clinic,-26.1926,27.989892
Gauteng,Clinic,Kwa -Xuma,Zola CHC,-26.239482,27.854006
Gauteng,Clinic,Kokotsi,Thusanang Clinic,-26.49964,27.46562
Gauteng,Clinic,Princess,Princess Clinic,-26.137235,27.843593
Gauteng,Clinic,Rosebank,Rosebank Clinic,-26.14702,28.03733
Gauteng,Clinic,Roodepoort,Florida Clinic,-26.171173,27.9128
Gauteng,Clinic,Evaton,Levai Mbatha CHC,-26.53031,27.8441
Gauteng,Clinic,Garankuwa,Garankuwa View Clinic,-25.54823,27.98322
Gauteng,Clinic,Katlehong,Ramokonopi CHC,-26.360614,28.161819
Gauteng,Clinic,Soweto,Mandela Sisulu Clinic,-26.235067,27.906046
Gauteng,Clinic,Dobsonville,Nokuphila Clinic,-26.230513,27.851058
Gauteng,Clinic,Onverwacht,Onverwacht Clinic,-25.3611,28.3556
Gauteng,Clinic,Sharpville,Retswelapele Clinic,-26.67318,27.88029
Gauteng,Clinic,Mabopane,Sedilega Clinic,-25.49973,28.0355
Gauteng,Clinic,Rietvallei Ext 1 Swaneville,Eric Ndeleni Clinic,-26.19463,27.76829
Gauteng,Clinic,Ga-Rankuwa,Phedisong 1 Clinic,-25.59972,27.98139
Gauteng,Clinic,Mohlakeng,Mohlakeng CHC,-26.2213,27.69409
Gauteng,Clinic,Tembisa,Winnie Mandela Clinic,-25.981753,28.223209
Gauteng,Clinic,Meqheleng,Sharpeville CHC,-26.68694,27.87063
Gauteng,Clinic,Soshanguve,Soshanguve Block X Clinic,-25.4692,28.1317
Gauteng,Clinic,Glenhavie,Glenhavie Satellite Clinic,-26.38992,27.61567
Gauteng,Clinic,Westbury,Westbury Clinic,-26.183266,27.97312
Gauteng,Clinic,Soshanguve,Soshanguve Block JJ Clinic,-25.45762,28.08334
Gauteng,Clinic,Benoni,Kemston Clinic,-26.187678,28.313519
Gauteng,Clinic,Bluegum View,Sonto Thobela Clinic,-26.383828,28.395179
Gauteng,Clinic,Kwa-Thema,White City Clinic,-26.304789,28.385756
Gauteng,Clinic,Marshalltown,80 Albert Street Clinic,-26.208026,28.049984
Gauteng,Clinic,Daveyton,Joy Clinic,-26.127526,28.463208
Gauteng,Clinic,Germiston,Tamaho Clinic,-26.310812,28.143252
Gauteng,Clinic,Ennerdale,Ennerdale Ext 9 Clinic,-26.402729,27.831411
Gauteng,Clinic,Orange Farm,Bristlecone Clinic,-26.450595,27.856613
Gauteng,Clinic,Katlehong,Goba Clinic,-26.34235,28.15183
Gauteng,Clinic,Thokoza,Greenfields Clinic,-26.39655,28.125408
Gauteng,Clinic,Thokoza,Dresser Clinic,-26.355038,28.135943
Gauteng,Clinic,Bedfordview,Bedfordview Clinic,-26.178856,28.134833
Gauteng,Clinic,Benoni,Northmead Clinic,-26.159321,28.312602
Gauteng,Clinic,Kempton Park,Spartan Clinic,-26.108655,28.226012
Gauteng,Clinic,Parkhurst,Parkhurst Clinic,-26.13776,28.01578
Gauteng,Clinic,Eldoraigne,Eldoraigne Satellite Clinic,-25.83591,28.14881
Gauteng,Clinic,Laudium,Laudium CHC,-25.78401,28.08798
Gauteng,Clinic,Randburg,Randburg Clinic,-26.095585,28.005052
Gauteng,Clinic,Eldoradopark,Klipspruit West Clinic,-26.289288,27.881327
Gauteng,Clinic,Sophiatown,Sophiatown Clinic,-26.173339,27.979238
Gauteng,Clinic,Krugersdorp West,Jan Maree Clinic,-26.09488,27.74743
Gauteng,Clinic,Krugersdorp,Krugersdorp Central Clinic,-26.09939,27.76868
Gauteng,Clinic,Eersterust,Eersterust CHC,-25.71645,28.30801
Gauteng,Clinic,Fochville,Greenspark Clinic,-26.49359,27.51478
Gauteng,Clinic,Olivenhoutbosch,Olievenhoutbosch Ext 13 Clinic,-25.91141,28.09309
Gauteng,Clinic,Karenpark,Karenpark Clinic,-25.67252,28.108
Gauteng,Clinic,Berario,Berario Clinic,-26.136176,27.953049
Gauteng,Clinic,Randfontein,Kocksoord Clinic,-26.2219,27.64601
Gauteng,Clinic,Weltevredenpark,Weltevreden Park Clinic,-26.11981,27.933093
Gauteng,Clinic,Roodepoort,Davidsonville Clinic,-26.154778,27.848818
Gauteng,Clinic,Rayton,Rayton Clinic,-25.739137,28.532041
Gauteng,Clinic,Ennerdale,Mid Ennerdale Clinic,-26.413982,27.846871
Gauteng,Clinic,Claremont,Claremont Clinic,-26.178211,27.955838
Gauteng,Clinic,Glenanda,Glenanda Clinic,-26.271203,28.038483
Gauteng,Clinic,Boksburg,Boksburg North Clinic,-26.208984,28.252593
Gauteng,Clinic,Toekomsrus,PJ Maree Clinic,-26.20471,27.70621
Gauteng,Clinic,Some As Above,Alberton North Clinic,-26.259778,28.128664
Gauteng,Clinic,Ennerdale,Ennerdale Ext 8 Clinic,-26.41318,27.81714
Gauteng,Clinic,Malvern,Malvern Clinic,-26.20163,28.11171
Gauteng,Clinic,Tsakane,Tsakane Ext 10 Clinic,-26.38442,28.37905
Gauteng,Clinic,Azaadville,Azaadville Clinic,-26.17092,27.75829
Gauteng,Clinic,Pretoria,FF Ribeiro Clinic,-25.74501,28.19489
Gauteng,Clinic,Pretoria,South Hills Clinic,-26.251474,28.087921
Gauteng,Clinic,Primrose,Wannenburg Clinic,-26.189315,28.168334
Gauteng,Clinic,Same As Above,Joubert Park Clinic,-26.195339,28.047911
Gauteng,Clinic,Midrand,Mayibuye Clinic,-26.033668,28.171429
Gauteng,Clinic,Devon,Usizolwethu Clinic,-26.35174,28.77772
Gauteng,Clinic,Heidelberg,Ratanda Ext 7 Clinic,-26.57399,28.32431
Gauteng,Clinic,Lotus Gardens,Lotus Gardens Clinic,-25.74521,28.0825
Gauteng,Clinic,Saulsville,Gazankulu Clinic,-25.7808,28.05619
Gauteng,Clinic,Atteridgeville,Atteridgeville Clinic,-25.76861,28.07841
Gauteng,Clinic,Edenvale,Edenvale Clinic,-26.134842,28.148708
Gauteng,Clinic,Boksburg,Boksburg Civic Centre Clinic,-26.222354,28.251016
Gauteng,Clinic,Elsburg,Elsburg Clinic,-26.245744,28.200595
Gauteng,Clinic,Alexandra,Alexandra 8th Avenue Clinic,-26.109772,28.096131
Gauteng,Clinic,Dawn Park,Dawn Park Clinic,-26.306469,28.257654
Gauteng,Clinic,Crown Gardens,Crown Gardens Clinic,-26.24917,28.00458
Gauteng,Clinic,Rosslyn,Rosslyn Clinic,-25.62641,28.09489
Gauteng,Clinic,Gezina,Skinner Street Clinic,-25.73271,28.1998
Gauteng,Clinic,Pierre Van Ryneveld,Pierre Van Ryneveld Satellite Clinic,-25.84302,28.24329
Gauteng,Clinic,Boekenhout,Boekenhout CHC,-25.541304,28.301457
Gauteng,Clinic,Kibler Park,Kibler Park Clinic,-26.319342,28.008914
Gauteng,Clinic,Magaliesberg,Mogale Clinic,-25.99729,27.5358
Gauteng,Clinic,Ennerdale,Lawley 2 Clinic,-26.38272,27.80625
Gauteng,Clinic,Lenasia,Lenasia Ext 2 Clinic,-26.32109,27.825311
Gauteng,Clinic,Kwa-Thema,Selope Thema Clinic,-26.307133,28.419107
Gauteng,Clinic,Cathcart,Zone 14 Clinic,-26.58755,27.8367
Gauteng,Clinic,Mabopane,Suurman Clinic,-25.377977,28.210284
Gauteng,Clinic,Rosslyn,Mercy Winterveldt NGO Clinic,-25.452144,28.059747
Gauteng,Clinic,Hercules,Hercules Clinic,-25.712,28.1477
Gauteng,Clinic,Kwa Yuma,Naledi Porta Cabin,-26.25998,27.82008
Gauteng,Clinic,Centurion,Lyttelton Clinic,-25.83524,28.19466
Gauteng,Clinic,Westonaria,Westonaria Clinic,-26.3302,27.65245
Gauteng,Clinic,Randfontein,ML Pessen Clinic,-26.18229,27.70204
Gauteng,Clinic,Randfontein,Elandsfontein Clinic,-26.26104,27.50366
Gauteng,Clinic,Fourways,Witkoppen Clinic,-26.011153,28.011036
Gauteng,Clinic,Umzimkulu,Sinqobile Clinic,-26.219591,27.885253
Gauteng,Clinic,Florida,Discoverers CHC,-26.166661,27.894437
Gauteng,Clinic,Bronkhorspruit,Zithobeni Clinic,-25.784259,28.71934
Gauteng,Clinic,Bronkhorspruit,Bronkhorstspruit Clinic,-25.809217,28.743217
Gauteng,Clinic,Roodepoort,Helderkruin Clinic,-26.13764,27.869461
Gauteng,Clinic,Prinshof,Tshwane Rehabilitation Hospital,-25.73651,28.19899
Gauteng,Clinic,Vanderbijlpark,Rus ter vaal Clinic,-26.57466,27.94908
Gauteng,Clinic,Vanderbiljpark,Evaton Main Clinic,-26.53166,27.866001
Gauteng,Clinic,Meyerton,Midvaal CDC,-26.555816,28.016918
Gauteng,Clinic,Diepkloof,Chris Hani Baragwanath Hospital,-26.260553,27.943919
Gauteng,Clinic,Edenpark,Eden Park Clinic,-26.377001,28.125998
Gauteng,Clinic,Marlboro,Thoko Mngoma Clinic,-26.095949,28.097231
Gauteng,Clinic,Nigel,Duduza Clinic,-26.373584,28.415497
Gauteng,Clinic,Kempton Park,Tembisa CHC,-26.008813,28.216836
Gauteng,Clinic,Kempton Park,Birchleigh Clinic,-26.067763,28.228115
Gauteng,Clinic,Bonaero Park,Bonaero Park Clinic,-26.119863,28.256042
Gauteng,Clinic,Kempton Park,Birchleigh North Clinic,-26.052617,28.22992
Gauteng,Clinic,Tembisa,Ethafeni Clinic,-26.023504,28.214588
Gauteng,Clinic,Tembisa,Tembisa Main Clinic,-26.009348,28.24085
Gauteng,Clinic,Kempton Park,Kempton Park Civic Centre Clinic,-26.102079,28.226044
Gauteng,Clinic,Germiston,Germiston City Clinic,-26.217029,28.164254
Gauteng,Clinic,Germiston,Zonkizizwe 2 Clinic,-26.4144,28.180184
Gauteng,Clinic,Tsakane,Tsakane Clinic,-26.348234,28.373271
Gauteng,Clinic,Brakpan,Simunye Clinic (Brakpan),-26.368095,28.356893
Gauteng,Clinic,Brakpan,Kingsway Clinic,-26.23064,28.367171
Gauteng,Clinic,Brakpan,Calcot Dhlephu Clinic,-26.376669,28.378194
Gauteng,Clinic,Lenasia,Lenasia Clinic,-26.314757,27.850776
Gauteng,Clinic,Bergvlei,Alexandra CHC,-26.116169,28.090625
Gauteng,Clinic,Jameson Park,Jameson Park Satellite Clinic,-26.45114,28.41774
Gauteng,Clinic,Heidelburg,Ratanda Clinic,-26.554102,28.326745
Gauteng,Clinic,Reiger Park,Reiger Park Clinic,-26.228229,28.227503
Gauteng,Clinic,Nigel,Nigel Clinic,-26.418988,28.467894
Gauteng,Clinic,Duduza,Sead Clinic,-26.393381,28.396153
Gauteng,Clinic,Alra Park,Alra Park Clinic,-26.432645,28.508218
Gauteng,Clinic,Edenvale,Itireleng (Region B) Clinic,-26.045024,28.178177
Gauteng,Clinic,Tembisa,Esangweni CHC,-26.022075,28.201073
Gauteng,Clinic,Bramley,Alexandra East Bank Clinic,-26.106843,28.11028
Gauteng,Clinic,Sandton,Sandown Clinic,-26.10647,28.055796
Gauteng,Clinic,Petervale,Petervale Clinic,-26.03804,28.047361
Gauteng,Clinic,Dunnottar,Nokuthela Ngwenya CHC,-26.350594,28.421001
Gauteng,Clinic,Crystal Park,Crystal Park Clinic,-26.137101,28.370709
Gauteng,Clinic,Etwatwa,Barcelona Clinic,-26.109221,28.452586
Gauteng,Clinic,Benoni,Phillip Moyo CHC,-26.11976,28.484631
Gauteng,Clinic,Daveyton,Daveyton Ext Clinic,-26.075501,28.261911
Gauteng,Clinic,Daveyton,Daveyton East Clinic,-26.134454,28.439658
Gauteng,Clinic,Meyerton,Randvaal Clinic,-26.51518,28.04482
Gauteng,Clinic,Kookrus,Kookrus Clinic,-26.58894,28.00349
Gauteng,Clinic,Krugersdorp,Fanyana Nhlapo Clinic,-26.15222,27.78694
Gauteng,Clinic,Krugersdorp,Odirileng Maponya Clinic,-26.15897,27.78325
Gauteng,Clinic,Krugersdorp,Dr Yusuf Dadoo Hospital,-26.09965,27.78386
Gauteng,Clinic,Kagiso Krugersdorp,Thusong Community Clinic,-26.14002,27.7998
Gauteng,Clinic,Vanderbiljpark,Pontshong (Walkerville) Clinic,-26.49333,27.93308
Gauteng,Clinic,Springs,Far East Rand Hospital,-26.236265,28.4041
Gauteng,Clinic,Olifantsfontein,Tembisa Hospital,-25.984107,28.237288
Gauteng,Clinic,Halfway House,Rabie Ridge Clinic,-26.019409,28.171823
Gauteng,Clinic,Halfway House,Bophelong (Region 2) Clinic,-26.004592,28.190368
Gauteng,Clinic,Halfway House,OR Tambo Clinic,-25.92222,28.01842
Gauteng,Clinic,Ivory Park,Hikhensile Clinic,-25.992591,28.204485
Gauteng,Clinic,Halfway House,Diepsloot South Clinic,-25.93107,28.00507
Gauteng,Clinic,Newdare,Rahima Moosa Hospital,-26.188128,27.973852
Gauteng,Clinic,Midrand,Mpumelelo Clinic,-25.985886,28.208712
Gauteng,Clinic,Halfwayhouse,Ebony Park / Kaalfontein Clinic,-25.994083,28.179631
Gauteng,Clinic,Krugersdorp,Sterkfontein Hospital,-26.05886,27.75778
Gauteng,Clinic,Carltonville,Carletonville hospital,-26.34704,27.39446
Gauteng,Clinic,Krugersdorp,Leratong Hospital,-26.17133,27.80774
Gauteng,Clinic,Halfwayhouse,Halfway House Clinic,-25.998816,28.128514
Gauteng,Clinic,Sebokeng,Empilisweni CDC,-26.547603,27.874382
Gauteng,Clinic,Parktown,Charlotte Maxeke Hospital,-26.176728,28.044255
Gauteng,Clinic,Brakpan,Pholosong Hospital,-26.340965,28.377519
Gauteng,Clinic,Auckland Park,Helen Joseph Hospital,-26.183916,27.99031
Gauteng,Clinic,Pretoria,East Lynne Clinic,-25.70512,28.2846
Gauteng,Clinic,Eldorado,Tarlton Clinic,-26.09143,27.66503
Gauteng,Clinic,Orange Farm,Stretford CHC,-26.469747,27.869155
Gauteng,Clinic,Kameeldrift,Kameeldrift Clinic,-25.385717,28.181144
Gauteng,Clinic,Zuurbekom,Zuurbekom Clinic,-26.31693,27.70312
Gauteng,Clinic,Randfontein,Badirile Clinic,-26.13027,27.59278
Gauteng,Clinic,Bronkhorspruit,Kanana Clinic,-25.777576,28.606977
Gauteng,Clinic,Kromdraai,DMA Kromdraai Clinic,-25.98821,27.78312
Gauteng,Clinic,Krugersdorp,Hands of Compassion Clinic,-25.97402,27.91211
Gauteng,Clinic,Hammanskraal,Mandisa Shiceka Clinic,-25.40372,28.28567
Gauteng,Clinic,Cullinan,De Wagensdrift Satellite Clinic,-25.3051,28.3141
Gauteng,Clinic,Muldersdrift,Muldersdrift Clinic,-26.0157,27.85714
Gauteng,Clinic,Hekpoort,Itumeleng Clinic,-25.89636,27.60122
Gauteng,Clinic,Silverton,Silverton Clinic,-25.733389,28.297608
Gauteng,Clinic,Braamfontein,Hillbrow CHC,-26.19298,28.045768
Gauteng,Clinic,Hammanskraal,Jubilee Gateway Clinic,-25.40306,28.26582
Gauteng,Clinic,Mabopane,Kgabo CHC,-25.47034,28.05896
Gauteng,Clinic,Heidelberg,Heidelberg Hospital,-26.49873,28.357912
Gauteng,Clinic,Vanderbijlpark,Johan Heyns CHC,-26.70309,27.83411
Gauteng,Clinic,Pretoria,Steve Biko Academic Hospital,-25.73271,28.19978
Gauteng,Clinic,Boksburg,Tambo Memorial Hospital,-26.218691,28.245817
Gauteng,Clinic,Cryton,Barney Molokoane Clinic,-26.492298,27.878977
Gauteng,Clinic,Dewetsdorp,Natalspruit Hospital,-26.32597,28.145342
Gauteng,Clinic,Philip Nel Park,Pretoria West Hospital,-25.73654,28.13962
Gauteng,Clinic,Lenasia South,Lenasia South CHC,-26.378414,27.850052
Gauteng,Clinic,Vereeniging,Kopanong Hospital,-26.63793,27.93328
Gauteng,Clinic,Vanderbijlpark,Sebokeng Hospital,-26.60673,27.84801
Gauteng,Clinic,Kwa-Xuma,Mofolo South Clinic,-26.257724,27.886165
Gauteng,Clinic,Edenvale,Edenvale Hospital,-26.127921,28.128374
Gauteng,Clinic,Germiston,Germiston Hospital,-26.218874,28.162948
Gauteng,Clinic,Daspoort,Daspoort Poli Clinic,-25.71389,28.13167
Gauteng,Clinic,Pretoria,Weskoppies Hospital,-25.76389,28.16057
Gauteng,Clinic,Pretoria,Tshwane District Hospital,-25.73271,28.1998
Gauteng,Clinic,Sandringham,Sizwe Tropical Diseases Hospital,-26.13745,28.12496
Gauteng,Clinic,Halfway House,Midrand West Clinic,-25.986831,28.11205
Gauteng,Clinic,Eikenhof,Eikenhof LA Clinic,-26.334473,27.987362
Gauteng,Clinic,Pretoria,Kalafong Hospital,-25.76277,28.08948
Gauteng,Clinic,Hammanskraal,Temba CHC,-25.37743,28.26362
Gauteng,Clinic,Hammanskraal,Ramotse Clinic,-25.3576,28.29507
Gauteng,Clinic,Hammanskraal,Jubilee Hospital,-25.40306,28.26582
Gauteng,Clinic,Mabophane,Dilopye Clinic,-25.38296,28.19353
Gauteng,Clinic,Mabopane,Phedisong 6 Clinic,-25.60489,28.00799
Gauteng,Clinic,Mabopane,Odi Hospital,-25.5184,28.02245
Gauteng,Clinic,Randburg,Tara H Moross Centre Hospital,-26.108635,28.036975
Gauteng,Clinic,Krugersdorp,Dr Yusuf Dadoo Gateway Clinic,-26.09934,27.78333
Gauteng,Clinic,Mamelodi East,Mamelodi Hospital,-25.718854,28.368936
Gauteng,Clinic,Cullinan,Cullinan Rehabilitation Hospital,-25.691202,28.538929
Gauteng,Clinic,Soweto,Lillian Ngoyi CHC,-26.259523,27.934628
Gauteng,Clinic,Yeoville,Yeoville Clinic,-26.182096,28.062966
Gauteng,Clinic,Lenasia Ext 10,Lenasia Ext 10 Clinic,-26.339735,27.872674
Gauteng,Clinic,Reedville Clinic,Reedville Clinic,-26.264603,28.390541
Gauteng,Clinic,Bophelong,Bophelong (Region B) CDC,-26.6939,27.79729
Gauteng,Clinic,Katlehong,Moleleki Clinic,-26.384481,28.178108
Gauteng,Clinic,Poortjie,Sinethemba Clinic,-26.456288,27.766729
Gauteng,Clinic,Eldorado Park Ext 2,Eldorado Park Ext 2 Clinic,-26.289298,27.921023
Gauteng,Clinic,Lenasia South,Lenasia South Civic Centre Clinic,-26.388664,27.862299
Gauteng,Clinic,Palmridge,Palmridge Clinic,-26.387353,28.143303
Gauteng,Clinic,Springs,Slovo Park Clinic,-26.214283,28.489241
Gauteng,Clinic,Kempton Park,Endayeni Clinic,-26.01958,28.191648
Gauteng,Clinic,Mayfair,Mayfair Clinic,-26.207251,28.01577
Gauteng,Clinic,Pyramid,Adelaide Tambo Clinic,-25.58195,28.23326
Gauteng,Clinic,Katlehong,Sunriseview Clinic,-26.39157,28.19707
Gauteng,Clinic,Mamelodi East,Stanza Bopape CHC,-25.70567,28.39402
Gauteng,Clinic,Carltonvile,Khutsong South Clinic,-26.34764,27.33127
Gauteng,Clinic,Se 2,Driehoek Clinic,-26.72609,27.8462
Gauteng,Clinic,Rooihuiskraal,Rooihuiskraal Clinic,-25.8937,28.15372
Gauteng,Clinic,Mooiplaas,Ubuntu Clinic,-25.791111,28.431111
Gauteng,Clinic,Luipaardsvlei,Luipaardsvlei Old Age Home,-26.12265,27.81323
Gauteng,Clinic,Wilderbeesfontein,Wildebeesfontein Clinic,-26.517662,27.885001
Gauteng,Clinic,Protea Glen,Protea Glen Clinic,-26.272841,27.805511
Gauteng,Clinic,Malibongwe Drive,Eyethu Yarona Clinic,-25.990026,27.927247
Gauteng,Clinic,Sokhulumi,Sokhulumi Clinic,-25.602948,28.89733
Gauteng,Clinic,Thohoyandou,Phedisong 1 MOU,-25.61499,27.98804
KwaZulu-Natal,Clinic,Umlazi,Umlazi G Clinic,-29.952497,30.884915
KwaZulu-Natal,Clinic,Nagina,Nagina Clinic,-29.870115,30.812235
KwaZulu-Natal,Clinic,Merebank,Merebank Clinic,-29.953108,30.970279
KwaZulu-Natal,Clinic,La Lucia,La Lucia Clinic,-29.754598,31.062797
KwaZulu-Natal,Clinic,Reservoir Hills,Reservoir Hills Clinic,-29.803137,30.952156
KwaZulu-Natal,Clinic,Clermont,Clermont Clinic,-29.795223,30.892895
KwaZulu-Natal,Clinic,Sydenham,Sydenham Heights Clinic,-29.827214,30.981558
KwaZulu-Natal,Clinic,Bluff,Bluff Clinic,-29.90041,31.025825
KwaZulu-Natal,Clinic,Waterfall,Waterfall Clinic,-29.749316,30.818257
KwaZulu-Natal,Clinic,Ladysmith,Tholusizo Clinic,-28.736713,29.838567
KwaZulu-Natal,Clinic,Newlands West,Newlands West Clinic,-29.779087,30.95483
KwaZulu-Natal,Clinic,Winburg,Redhill Clinic,-29.777967,31.020262
KwaZulu-Natal,Clinic,Lugada,Luganda Clinic,-29.888276,30.80376
KwaZulu-Natal,Clinic,Wyebank,Wyebank Clinic,-29.77072,30.876689
KwaZulu-Natal,Clinic,New Germany,New Germany Clinic,-29.798154,30.875748
KwaZulu-Natal,Clinic,Kloof,Kloof Clinic,-29.791667,30.832089
KwaZulu-Natal,Clinic,Durban,Beatrice Street Clinic,-29.85175,31.018057
KwaZulu-Natal,Clinic,Newlands East,Glen Earle Clinic,-29.780132,30.979407
KwaZulu-Natal,Clinic,Shallcross,Shallcross Clinic,-29.889258,30.878636
KwaZulu-Natal,Clinic,Longmarket Street,Balgowan Clinic,-29.39584,30.05722
KwaZulu-Natal,Clinic,Ndwedwe,Wosiyane Clinic,-29.555043,30.782637
KwaZulu-Natal,Clinic,Phoenix,Phoenix Rehabilitation Centre,-29.691208,30.99653
KwaZulu-Natal,Clinic,Whetstone,Phoenix CHC,-29.707382,30.992609
KwaZulu-Natal,Clinic,Ladysmith,Ladysmith Gateway Clinic,-28.55897,29.76511
KwaZulu-Natal,Clinic,Manguzi,Zama Zama Clinic,-27.12576,32.28077
KwaZulu-Natal,Clinic,Westville,Westville Clinic,-29.83398,30.911947
KwaZulu-Natal,Clinic,Saai Plaas,Charlestown Clinic,-27.423586,29.872714
KwaZulu-Natal,Clinic,Newlands West,Newlands East Clinic,-29.787812,30.969906
KwaZulu-Natal,Clinic,Pinetown,KwaNdengezi Clinic,-29.85098,30.768089
KwaZulu-Natal,Clinic,Kenville,Sea Cow Lake Clinic,-29.796352,31.00205
KwaZulu-Natal,Clinic,Phoenix,Starwood Clinic,-29.703323,31.006368
KwaZulu-Natal,Clinic,Sydenham,King George V Hospital,-29.82358,30.98704
KwaZulu-Natal,Clinic,Phoenix,Grove End Clinic,-29.69796,31.02438
KwaZulu-Natal,Clinic,Chatsworth,Chatsworth Township Centre Clinic,-29.911454,30.879537
KwaZulu-Natal,Clinic,Mariannridge,Mariannridge Clinic,-29.862495,30.82117
KwaZulu-Natal,Clinic,Verulam,Verulam Clinic,-29.645994,31.0471
KwaZulu-Natal,Clinic,Clare Estate,Clare Estate Clinic,-29.820894,30.974434
KwaZulu-Natal,Clinic,Austerville,Austerville Clinic,-29.940474,30.983065
KwaZulu-Natal,Clinic,Durban,Addington Gateway Clinic,-29.860627,31.041237
KwaZulu-Natal,Clinic,Amanzimtoti,Amanzimtoti Clinic,-30.054121,30.880621
KwaZulu-Natal,Clinic,Amanzimtoti,Athlone Park Hall Clinic,-30.017609,30.920088
KwaZulu-Natal,Clinic,Richards Bay,Richards Bay Clinic,-28.7555,32.05025
KwaZulu-Natal,Clinic,Amanzintoti,Bhekimpilo Trust - Bekulwandle Clinic,-29.677308,30.921191
KwaZulu-Natal,Clinic,Nkandla,Mpandleni Clinic,-28.620445,31.088608
KwaZulu-Natal,Clinic,Harding,Meadow Sweet Clinic,-30.63895,30.03235
KwaZulu-Natal,Clinic,Harding,Harding Clinic,-30.57485,29.88308
KwaZulu-Natal,Clinic,Harding,Elim Clinic,-30.72638,29.99437
KwaZulu-Natal,Clinic,High Flats,Ndwebu Clinic,-29.511451,30.939442
KwaZulu-Natal,Clinic,Tugela Ferry,Ethembeni Clinic,-28.856655,30.497709
KwaZulu-Natal,Clinic,Morrison,Morrison's Post Clinic,-30.56581,30.42173
KwaZulu-Natal,Clinic,Hammarsdale,Mpumalanga Clinic,-29.803945,30.621675
KwaZulu-Natal,Clinic,Ozwathini,Chibini Clinic,-29.274769,30.932286
KwaZulu-Natal,Clinic,Mtubatuba,Mtubatuba Clinic,-28.41123,32.18526
KwaZulu-Natal,Clinic,Newcastle,Sukumani Clinic,-27.780449,30.096295
KwaZulu-Natal,Clinic,Newcastle,Phungashe Clinic,-30.42536,30.15072
KwaZulu-Natal,Clinic,Newcastle,Mvutshini Clinic (uMlalazi),-28.951687,31.569289
KwaZulu-Natal,Clinic,Eshowe,Mthungweni Clinic,-28.811024,31.053801
KwaZulu-Natal,Clinic,Nqutu,Mkhonjane Clinic,-28.150461,30.577392
KwaZulu-Natal,Clinic,Umzumbe,Gqayinyanga Clinic,-30.570723,30.477437
KwaZulu-Natal,Clinic,Mthwalume,Khayelihle Clinic,-30.45197,30.5347
KwaZulu-Natal,Clinic,Durban,Savannah Park Clinic,-29.883202,30.847142
KwaZulu-Natal,Clinic,Hlabisa,Mpukunyoni Clinic,-28.36738,32.17427
KwaZulu-Natal,Clinic,Clernaville,Zwelibomvu Clinic,-29.885579,30.70911
KwaZulu-Natal,Clinic,Kwa-Pett,Osungulweni Clinic,-28.843985,31.204307
KwaZulu-Natal,Clinic,Kwapette,Ntumeni Clinic,-28.858903,31.322448
KwaZulu-Natal,Clinic,Kwapett,Mathungela Clinic,-28.89687,31.080979
KwaZulu-Natal,Clinic,Kwa-Pett,Ngudwini Clinic,-29.050737,31.250876
KwaZulu-Natal,Clinic,Kwapett,Samungu Clinic,-28.999062,31.325476
KwaZulu-Natal,Clinic,Empangeni,Isiboniso Clinic,-28.858375,31.984811
KwaZulu-Natal,Clinic,Durnacol,Durnacol Clinic,-28.047426,30.021392
KwaZulu-Natal,Clinic,Mahlabathini,Mpungamhlophe Clinic,-28.26602,31.25377
KwaZulu-Natal,Clinic,Mahlabathini,Hlathi Dam Clinic,-28.237784,30.54339
KwaZulu-Natal,Clinic,Richards Bay,KwaMbonambi Clinic,-28.713302,32.165541
KwaZulu-Natal,Clinic,Maphumulo,Mthandeni Clinic,-29.262169,31.077659
KwaZulu-Natal,Clinic,Ceza,Ceza Hospital,-27.996182,31.377532
KwaZulu-Natal,Clinic,Ixopo,Christ the King Gateway Clinic,-30.162433,30.078866
KwaZulu-Natal,Clinic,Nquthu,Mhlungwane Clinic,-28.13813,30.837083
KwaZulu-Natal,Clinic,St.Wendolins,Mzamo Clinic,-29.872292,30.830021
KwaZulu-Natal,Clinic,Tugela Ferry,Collessie Clinic,-28.682122,30.522552
KwaZulu-Natal,Clinic,Lotus Gardens,Hlengimpilo Clinic,-28.111742,31.672275
KwaZulu-Natal,Clinic,Nongoma,Sovane Clinic,-27.65295,31.79266
KwaZulu-Natal,Clinic,Mbadleni Area,Mbadleni Clinic,-26.96269,32.13522
KwaZulu-Natal,Clinic,Shemula,Shemula Clinic,-27.082,32.22862
KwaZulu-Natal,Clinic,Melmoth,Makhosini Clinic,-28.37908,31.271612
KwaZulu-Natal,Clinic,Mahlabathini,Nomdiya Clinic,-28.227386,31.377822
KwaZulu-Natal,Clinic,Lamontville,Lamontville Clinic,-29.950115,30.943653
KwaZulu-Natal,Clinic,Klaarwater,Klaarwater Clinic,-29.883058,30.829573
KwaZulu-Natal,Clinic,Phoenix,Amaoti Clinic,-29.68804,30.97942
KwaZulu-Natal,Clinic,Dalton,Efaye Clinic,-29.277401,30.795456
KwaZulu-Natal,Clinic,Adams Mission,Adams Mission Clinic,-30.017686,30.817782
KwaZulu-Natal,Clinic,Pomeroy,Cwaka Clinic,-28.65783,30.464294
KwaZulu-Natal,Clinic,Tafuleni,Ntembeni Clinic,-29.715798,30.248985
KwaZulu-Natal,Clinic,Eshowe,Ekuphumuleni Clinic,-28.78098,31.761099
KwaZulu-Natal,Clinic,Warden,Ezimfabeni Clinic,-28.10519,31.43037
KwaZulu-Natal,Clinic,Ntuzuma,Ntuzuma Clinic,-29.72779,30.947116
KwaZulu-Natal,Clinic,G.J. Crookes,Mabheleni Clinic,-30.44209,30.32103
KwaZulu-Natal,Clinic,G.J. Croookes,Nkwali Clinic,-30.102,30.79818
KwaZulu-Natal,Clinic,Kwamashu,Qadi Clinic,-29.66748,30.903122
KwaZulu-Natal,Clinic,Highflats,Gcinokuhle Clinic,-30.25716,30.10782
KwaZulu-Natal,Clinic,Scottburgh,Philani Clinic,-30.25138,30.68312
KwaZulu-Natal,Clinic,Umzinto,Dududu Clinic,-30.19445,30.60341
KwaZulu-Natal,Clinic,Scotburgh,Mgayi Clinic,-30.38428,30.47667
KwaZulu-Natal,Clinic,Greytown,Greytown Hospital,-29.067508,30.59998
KwaZulu-Natal,Clinic,Umlazi,Umzomuhle (Umlazi H) Clinic,-29.950912,30.86832
KwaZulu-Natal,Clinic,Tongaat,Hambanathi Clinic,-29.558689,31.11963
KwaZulu-Natal,Clinic,High Flats,Hlokozi Clinic,-30.361299,30.293695
KwaZulu-Natal,Clinic,Nqutu,Isandlwana Clinic,-28.360695,30.673117
KwaZulu-Natal,Clinic,Isipingo,Isipingo Clinic,-29.996027,30.920151
KwaZulu-Natal,Clinic,Ixopo,Ixopo Clinic,-30.147465,30.067067
KwaZulu-Natal,Clinic,Impendle,Nxamalala Clinic (Impendle),-29.599548,29.770905
KwaZulu-Natal,Clinic,Kwamashu,KwaMashu B Clinic,-29.746759,30.989959
KwaZulu-Natal,Clinic,Kwamashu,Rydalvale Clinic,-29.748175,30.970521
KwaZulu-Natal,Clinic,Kwamashumi Clinic,Kwamashumi Clinic,-30.339933,30.126558
KwaZulu-Natal,Clinic,Ozwathini,Bambanani Clinic,-29.269278,30.847694
KwaZulu-Natal,Clinic,Maqongqo Area,Maguzu Clinic,-29.581533,30.564448
KwaZulu-Natal,Clinic,Richmond,Phatheni Clinic,-29.95411,30.21231
KwaZulu-Natal,Clinic,Odidini,Odidini Clinic,-30.035226,30.680936
KwaZulu-Natal,Clinic,Umlazi L,Ekuphileni (Umlazi L) Clinic,-29.96793,30.86333
KwaZulu-Natal,Clinic,Umzimkhulu,Lourdes Clinic,-30.208685,29.705948
KwaZulu-Natal,Clinic,Sibhayi,Mabibi Clinic,-27.32839,32.73092
KwaZulu-Natal,Clinic,Dannhauser,Thandanani Clinic (Dannhauser),-28.029623,30.060128
KwaZulu-Natal,Clinic,Umzinto,Umzinto North Clinic,-30.30441,30.66793
KwaZulu-Natal,Clinic,Umlazi,Umlazi V Clinic,-29.960173,30.930411
KwaZulu-Natal,Clinic,Plessislear,Mbuthisweni Clinic,-30.059767,30.457975
KwaZulu-Natal,Clinic,Hluhluwe,Mduku Clinic,-27.8281,32.38807
KwaZulu-Natal,Clinic,Welbedacht,Welbedacht Clinic,-29.925196,30.859922
KwaZulu-Natal,Clinic,Keanskop,Mfongosi Clinic,-28.715751,30.806482
KwaZulu-Natal,Clinic,Mgangeni Clinic Scottburgh,Mgangeni Clinic,-30.237236,30.38099
KwaZulu-Natal,Clinic,Mahlabathini,Ncemaneni Clinic,-28.33601,31.66601
KwaZulu-Natal,Clinic,Highflats,Mntungwana Clinic,-30.146621,30.305561
KwaZulu-Natal,Clinic,Ingwavuma,Ekuhlehleni Clinic,-26.85419,32.04265
KwaZulu-Natal,Clinic,Phelandaba Clinic,Mseleni Hospital,-27.32566,32.55664
KwaZulu-Natal,Clinic,Tugela Ferry,Mumbe Clinic,-28.753328,30.548577
KwaZulu-Natal,Clinic,Mvutshini,Mvutshini Clinic (Hibiscus Coast),-30.86013,30.37167
KwaZulu-Natal,Clinic,Pomeroy,Gunjana Clinic,-28.636876,30.337509
KwaZulu-Natal,Clinic,Umlazi,Umlazi N Clinic,-29.959543,30.87269
KwaZulu-Natal,Clinic,Nkandla,Ndabaningi Clinic,-28.7527,31.068462
KwaZulu-Natal,Clinic,Richards Bay,Thokozani Clinic,-28.86794,31.910061
KwaZulu-Natal,Clinic,High-Flats,Nhlalwane Clinic,-30.45653,30.08512
KwaZulu-Natal,Clinic,Mahlabathini,Lomo Clinic,-28.21684,31.63445
KwaZulu-Natal,Clinic,Swyimana,Gcumisa Clinic,-29.51635,30.69363
KwaZulu-Natal,Clinic,Ixopo,Nokweja Clinic,-30.297344,30.02097
KwaZulu-Natal,Clinic,Nseleni,Nhlabane Clinic,-28.641838,32.239047
KwaZulu-Natal,Clinic,Empangeni,Ntuze Clinic,-28.890278,31.740918
KwaZulu-Natal,Clinic,Mpola,Mpola Clinic,-29.85356,30.810712
KwaZulu-Natal,Clinic,Inanda,Sivananda Clinic,-29.699255,30.957273
KwaZulu-Natal,Clinic,Dundee,Rorke's Drift Clinic,-28.36278,30.54022
KwaZulu-Natal,Clinic,Verumal,Osindisweni Hospital,-29.608445,30.982711
KwaZulu-Natal,Clinic,Vryheid,Mason Street Clinic,-27.76578,30.80109
KwaZulu-Natal,Clinic,Stafforol'S Post,Ibisi Clinic,-30.413102,29.892882
KwaZulu-Natal,Clinic,Maphumulo,Mbekaphansi Clinic,-29.092299,30.967514
KwaZulu-Natal,Clinic,Melmoth,Melmoth Clinic,-28.589129,31.397772
KwaZulu-Natal,Clinic,Estcourt,Connor Street Clinic,-29.009264,29.874672
KwaZulu-Natal,Clinic,Escourt,Forderville Clinic,-28.99564,29.87048
KwaZulu-Natal,Clinic,Ngwelezane,Dondotha Clinic,-28.54413,31.945737
KwaZulu-Natal,Clinic,Paulpietersburg,Hartland Clinic,-27.426652,31.043302
KwaZulu-Natal,Clinic,Ladysmith,Watersmeet Clinic,-28.396294,29.734626
KwaZulu-Natal,Clinic,Eshowe,Eshowe Clinic,-28.897908,31.467966
KwaZulu-Natal,Clinic,Esidumbini,Esidumbini Clinic,-29.382577,30.996251
KwaZulu-Natal,Clinic,Ballito,Ballito Clinic,-29.528464,31.206064
KwaZulu-Natal,Clinic,Bergville,Bergville Clinic,-28.73002,29.34958
KwaZulu-Natal,Clinic,Stanger,Glenhills Clinic,-29.337937,31.26562
KwaZulu-Natal,Clinic,Kwadukuza,Darnall Clinic,-29.27401,31.35502
KwaZulu-Natal,Clinic,Kwadukuza,Nandi Clinic,-29.322463,31.302538
KwaZulu-Natal,Clinic,Ladysmith,Ezakheni 2 Clinic,-28.618837,29.916973
KwaZulu-Natal,Clinic,Vryheid,Bhekuzulu Clinic,-27.777203,30.821972
KwaZulu-Natal,Clinic,Marburg,Marburg Clinic,-30.74754,30.42966
KwaZulu-Natal,Clinic,Port Sheptone,Port Shepstone Clinic,-30.73751,30.44332
KwaZulu-Natal,Clinic,Omtentweni,Umtentweni Clinic,-30.71964,30.47349
KwaZulu-Natal,Clinic,Port Sheptone,Shelly Beach Clinic,-30.8007,30.4118
KwaZulu-Natal,Clinic,Ladysmith,Kleinfontein Clinic,-28.36273,29.649627
KwaZulu-Natal,Clinic,Hillcrest,KwaNgcolosi Clinic,-29.70213,30.838642
KwaZulu-Natal,Clinic,Richmond,Richmond Chest Hospital (TB),-29.864933,30.275359
KwaZulu-Natal,Clinic,Starford Post,Sihleza Clinic,-30.454121,29.725093
KwaZulu-Natal,Clinic,Cramond,Cramond Satellite Clinic,-29.38045,30.407163
KwaZulu-Natal,Clinic,Bulwer,Gwala Clinic,-29.857454,29.790317
KwaZulu-Natal,Clinic,Midi Llovo,Embo CHC,-30.078049,30.552356
KwaZulu-Natal,Clinic,Inchanga,Fredville Clinic,-29.707263,30.666964
KwaZulu-Natal,Clinic,Vryheid,Bhekumthetho Clinic,-27.97316,30.73798
KwaZulu-Natal,Clinic,Vryheid,Siyakhathala Clinic,-28.093513,30.787954
KwaZulu-Natal,Clinic,Vryheid,Louwsburg Clinic,-27.57801,31.30045
KwaZulu-Natal,Clinic,Durban,Lancers Road Clinic,-29.857864,31.009689
KwaZulu-Natal,Clinic,Durban,Centre Clinic,-29.859227,31.009549
KwaZulu-Natal,Clinic,Durban,Umlazi AA Clinic,-29.977585,30.867012
KwaZulu-Natal,Clinic,Umzimkulu,Umzimkhulu Clinic,-30.260717,29.930041
KwaZulu-Natal,Clinic,Merrivale,Mpophomeni Clinic,-29.566174,30.186578
KwaZulu-Natal,Clinic,Plessislear,Doris Goodwin TB Hospital,-29.6484,30.336945
KwaZulu-Natal,Clinic,Richmond,Richmond Clinic,-29.868806,30.274324
KwaZulu-Natal,Clinic,Pietermaritzburg,Fort Napier Hospital(Psychiatric),-29.613135,30.369751
KwaZulu-Natal,Clinic,Pietermaritzburg,Townhill Hospital (Psychiatric),-29.58822,30.37065
KwaZulu-Natal,Clinic,Elanskop,Ncwadi Clinic,-29.77682,29.98536
KwaZulu-Natal,Clinic,Dweshula,Ntimbankulu Clinic,-30.55663,30.27177
KwaZulu-Natal,Clinic,Hluhluwe,Macabuzela Clinic,-28.02811,32.15997
KwaZulu-Natal,Clinic,Port Edward,Port Edward Clinic,-31.04673,30.21088
KwaZulu-Natal,Clinic,Mandini,Ohwebede Clinic,-29.180473,31.512155
KwaZulu-Natal,Clinic,Pinetown,Pinetown Clinic,-29.817413,30.858986
KwaZulu-Natal,Clinic,Howick,Howick Clinic,-29.48696,30.23167
KwaZulu-Natal,Clinic,Bulwer,Pholela CHC,-29.763837,29.858579
KwaZulu-Natal,Clinic,Hammarsdale,Peaceville Clinic,-29.797369,30.609128
KwaZulu-Natal,Clinic,Underberg,Tsatsi Memorial Clinic,-29.64956,29.6722
KwaZulu-Natal,Clinic,Impendle,Gomane Clinic,-29.605339,29.864386
KwaZulu-Natal,Clinic,Hieberdene,Nyangwini Happy Hours Clinic,-30.50311,30.59327
KwaZulu-Natal,Clinic,Ladysmith,Acaciavale Clinic,-28.586948,29.796258
KwaZulu-Natal,Clinic,Port Shepstone,Madlala Clinic,-30.63114,30.42725
KwaZulu-Natal,Clinic,Margate,Margate Clinic,-30.867209,30.364194
KwaZulu-Natal,Clinic,Port Shepstone,Gcilima Clinic,-30.91044,30.24526
KwaZulu-Natal,Clinic,Port Shepstone,Bhomela Clinic,-30.76862,30.338863
KwaZulu-Natal,Clinic,Pietermaritzburg,Stott Road Clinic,-29.60682,30.33705
KwaZulu-Natal,Clinic,Pietermaritzburg,Oribi Clinic,-29.63804,30.3963
KwaZulu-Natal,Clinic,Central City,Central City Clinic,-29.60181,30.38321
KwaZulu-Natal,Clinic,Pietermaritzburg,Church Street TB Clinic,-29.599394,30.381542
KwaZulu-Natal,Clinic,Pietermaritzburg,Eastwood Clinic,-29.5862,30.42559
KwaZulu-Natal,Clinic,Pietermaritzburg,Woodlands Clinic,-29.579886,30.392658
KwaZulu-Natal,Clinic,Pietermaritzburg,Ashdown Clinic,-29.639707,30.331235
KwaZulu-Natal,Clinic,Pietermaritzburg,Copesville Clinic,-29.554028,30.423481
KwaZulu-Natal,Clinic,Pietermaritzburg,Azalea Clinic,-29.625204,30.318961
KwaZulu-Natal,Clinic,Northdale,Northdale Clinic,-29.566573,30.402485
KwaZulu-Natal,Clinic,Pietermaritzburg,Glenwood Clinic(Pietermaritzburg),-29.589986,30.441565
KwaZulu-Natal,Clinic,Pietermaritzburg,Sinathing Clinic,-29.675089,30.294848
KwaZulu-Natal,Clinic,Pietermaritzburg,Sobantu Clinic,-29.595262,30.424884
KwaZulu-Natal,Clinic,Pietermaritzburg,Esigodini Clinic,-29.646573,30.272098
KwaZulu-Natal,Clinic,Anerley,Southport Clinic,-30.67819,30.50544
